~Version Information
 VERS.                2.00:   CWLS log ASCII Standard -VERSION 2.00
 WRAP.                  NO:   One line per frame      
~Well Information Block
#MNEM.UNIT                  Well Data                    Data Description
#----.----   -----------------------------------------   -------------------------------
 STRT.FT                                      1214.000 : Starting Depth
 STOP.FT                                      3832.000 : Ending Depth
 STEP.FT                                         0.500 : Level Spacing
 NULL.                                       -999.2500 : Absent Value
 COMP.        LAVACA RIVER OPERATING CO., LLC          : Company
 WELL.        MYSKA, ROBERT #4 ST                      : Well
 FLD .        BOLING                                   : Field
 LOC .        593' FNEL & 414' FEL OF LEASE            : Location
 CNTY.        FORT BEND                                : County
 STAT.        TEXAS                                    : State
 CTRY.        USA                                      : Country
 SRVC.        Baker Hughes                             : Service Company
 DATE.        10-SEP-2014                              : Log Date
 API .        42-157-32993                             : API Number
 UWI .        42-157-32993                             : Unique Well ID
~Curve Information Block
#MNEM    .UNIT        API Codes     Curve Description
#--------.--------   ------------   -------------------------------
 DEPT    .FT         99 995 99  1 : Depth
 BVOL    .F3         70 995 99  1 : Borehole volume
 CAL     .IN         70 280 99  1 : Caliper
 CNCF    .PU         42 995 99  1 : Field normalized compensated neutron porosity
 CVOL    .F3         70 995 99  1 : Cement volume
 GR      .GAPI       30 310  1  1 : Gamma ray
 M1R1    .OHMM        8 120 10  1 : Vertical 1-foot resolution matched resistivity, 10-inch DOI
 M1R2    .OHMM        8 120 20  1 : Vertical 1-foot resolution matched resistivity, 20-inch DOI
 M1R3    .OHMM        8 120 30  1 : Vertical 1-foot resolution matched resistivity, 30-inch DOI
 M1R6    .OHMM        8 120 60  1 : Vertical 1-foot resolution matched resistivity, 60-inch DOI
 M1R9    .OHMM        8 120 90  1 : Vertical 1-foot resolution matched resistivity, 90-inch DOI
 M2CC9   .MMHO        8 110 90  1 : HDIL 2-foot resolution compressed conductivity, 90-inch DOI
 M2R2    .OHMM        8 120 20  1 : Vertical 2-foot resolution matched resistivity, 20-inch DOI
 M2R9    .OHMM        8 120 90  1 : Vertical 2-foot resolution matched resistivity, 90-inch DOI
 PE      .B/E        45 358  1  1 : Photo electric cross-section
 PORZC   .PU         99 995 99  1 : Corrected porosity
 RMA     .OHMM       99 995 99  1 : Calculated borehole resistivity for ABC processing
 RWAZC   .           94 935  7  1 : Apparent formation water resistivity (corrected)
 SP      .MV          1  10  1  1 : Spontaneous Potential
 TEN     .LBF        99 635 99  1 : Differential tension
 TXTEMP  .DEGF       99 995 99  1 : Temperature near transmitter coil
 ZCOR    .G/C3       45 356 99  1 : Density correction
 ZDEN    .G/C3       45 350  1  1 : Formation bulk density
 ZDNC    .G/C3       94 995 99  1 : Borehole size/mud weight corrected density
~Parameter Information Block
#MNEM.UNIT             Parameter Value                  Parameter Description
#----.----   ----------------------------------------   -------------------------------
 HIDE.       HIGH DEFINITION INDUCTION LOG^S          : Header Identifer
 HID1.       COMPENSATED Z-DENSILOG^S                 : Header Identifer
 HID2.       COMPENSATED NEUTRON LOG                  : Header Identifer
 HID3.       GAMMA RAY LOG                            : Header Identifer
 CMT4.       HAZELETT 1                               : Comment 4  
 FL1 .       414' FSEL & 567' F SOUTH RIVER OF THE    : Field Location 1
 FL2 .       BETTNE, C A SURVEY      A-11             : Field Location 2
 OS1 .       1" HDIL/GR                               : Other Services Line 1
 OS2 .       TVD                                      : Other Services Line 2
 PDAT.       GL                                       : Permanent Datum
 EPD .FT     72                                       : Elevation Of Perm. Datum
 LMF .       KB                                       : Log Measured From
 APD .FT     12                                       : Above Permanent Datum
 DMF .       KB                                       : Drilling Measured From
 EKB .FT     84                                       : Elevation Of Kelly Bushing
 EDF .FT     83                                       : Elevation Of Derrick Floor
 EGL .FT     72                                       : Elevation Of Ground Level
 RUN .       1                                        : Run Number
 TRIP.       1                                        : Trip Number
 SON .       90010                                    : Service Order Number
 TDD .FT     3830                                     : Total Depth - Driller
 TDL .FT     3832                                     : Total Depth - Logger
 BLI .FT     3830                                     : Bottom Log Interval
 TLI .FT     1214                                     : Top Log Interval
 CSIZ.IN     8.625                                    : Casing Size
 CBDR.FT     1212                                     : Casing Bottom - Driller
 CBLO.FT     1214                                     : Casing Bottom - Logger
 BS  .IN     7.875                                    : Bit Size
 DFT .       WBM                                      : Drilling Fluid Type
 DFD .LB/G   9.6                                      : Drilling Fluid Density
 DFV .S      43                                       : Drilling Fluid Viscosity
 DFPH.       10                                       : Drilling Fluid Ph
 DFL .C3     8                                        : Drilling Fluid Loss
 MSS .       FLOWLINE                                 : Mud Sample Source
 RMS .OHMM   1.12                                     : Resistivity Of Mud Sample
 MST .DEGF   75                                       : Mud Sample Temperature
 RMFS.OHMM   0.84                                     : Resistivity Of Mud Filtrate Sample
 MFST.DEGF   75                                       : Mud Filtrate Sample Temperature
 RMCS.OHMM   1.40                                     : Resistivity Of Mud Cake Sample
 MCST.DEGF   75                                       : Mud Cake Sample Temperature
 MFSS.       C                                        : Mud Filtrate Sample Source
 MCSS.       C                                        : Mud Cake Sample Source
 RMB .OHMM   0.71                                     : Mud Resistivity At Bht
 BHT .DEGF   122                                      : Bottom Hole Temperature
 TSC .       8 HRS                                    : Time Since Circulation
 MRT .DEGF   122                                      : Maximum Recorded Temperature
 LUN .       HL-6681                                  : Logging Unit Number
 LUL .       VICTORIA,TX                              : Logging Unit Location
 ENGI.       O. FADAYOMI                              : Engineer's Name
 WITN.       EPPS / PELLEGRINI                        : Witness' Name
 TSTR.       HDIL/ZDL/CN/GR                           : Title Service Mnemonic
 TSTG.       NA                                       : Title Service Mnemonic
 STUS.       FINAL                                    : Status
 LCNM.       BAKER ATLAS                              : Logging Company Name
 LCC .       150                                      : Logging Company Code
 OPMD.       OH.WIRE                                  : Operation Mode
 PANA.       O. FADAYOMI                              : Processing Analyst
 PCON.       BAKER ATLAS                              : Processing Contractor
~Other information
 BVOL = TOTAL BOREHOLE VOLUME                                                    
 CVOL = TOTAL CEMENT VOLUME, BASED ON 5.5" CSG                                   
 DENSITY MATRIX = SANDSTONE, 2.65 G/CC                                           
 NEUTRON MATRIX = SANDSTONE                                                      
 REPEAT SECTION LOGGED BELOW SURFACE CASING DUE TO TIGHT SPOTS AT TD.            
 HL-6681 CREW:  L. BRINKMAN, J. GUILLEN                                          
#  Curve Data
~A DEPT     BVOL     CAL      CNCF     CVOL     GR       M1R1     M1R2     M1R3     M1R6     M1R9     M2CC9    M2R2     M2R9     PE       PORZC    RMA      RWAZC    SP       TEN      TXTEMP   ZCOR     ZDEN     ZDNC    
# ...
 3656.000   55.454    8.048   24.835   27.935   37.582    3.448    2.939    2.532    2.219    2.053  477.625    3.024    2.094    3.303   43.666    0.649    0.557  -38.176  -14.686  120.486    0.120    1.933    1.930
 3656.500   55.278    7.988   25.185   27.842   37.596    3.761    3.120    2.656    2.316    2.134  463.718    3.168    2.156    3.348   43.334    0.649    0.570  -40.893  -34.520  120.486    0.133    1.939    1.935
 3657.000   55.104    7.964   25.814   27.751   38.776    3.921    3.153    2.665    2.323    2.141  467.763    3.147    2.138    3.459   49.281    0.649    0.754  -42.509  -36.496  120.471    0.103    1.840    1.837
 3657.500   54.932    7.947   25.659   27.661   40.094    3.771    2.956    2.504    2.200    2.036  484.346    3.016    2.065    3.543   54.945    0.649    0.906  -42.987  -11.842  120.471    0.086    1.745    1.743
 3658.000   54.759    7.929   24.103   27.571   39.455    4.165    3.063    2.557    2.239    2.071  499.840    2.911    2.001    3.524   52.973    0.649    0.852  -43.061  -10.747  120.471    0.116    1.778    1.776
 3658.500   54.588    7.894   21.671   27.482   35.955    3.472    2.575    2.190    1.951    1.824  496.177    2.974    2.015    3.391   44.136    0.649    0.507  -43.730  -33.736  120.457    0.166    1.925    1.922
 3659.000   54.419    7.865   18.845   27.395   31.869    4.492    2.990    2.461    2.161    2.010  458.966    3.380    2.179    3.229   34.742    0.649    0.334  -45.188  -38.039  120.457    0.193    2.082    2.077
 3659.500   54.250    7.868   16.848   27.309   29.774   10.636    4.713    3.489    2.914    2.651  411.417    4.060    2.431    3.241   31.912    0.649    0.367  -47.263  -20.013  120.457    0.194    2.129    2.123
 3660.000   54.081    7.905   16.623   27.223   29.964   16.040    5.523    3.892    3.188    2.882  394.180    4.381    2.537    3.381   35.550    0.649    0.503  -49.655    1.308  120.457    0.185    2.068    2.063
 3660.500   53.910    7.945   18.210   27.134   32.713    8.973    4.423    3.308    2.784    2.553  406.166    4.156    2.462    3.510   39.484    0.649    0.558  -52.096   21.096  120.457    0.190    2.003    1.999
 3661.000   53.738    7.964   20.593   27.044   37.637    6.672    3.838    2.968    2.537    2.347  429.315    3.790    2.329    3.541   43.037    0.649    0.618  -54.235   26.779  120.442    0.189    1.944    1.940
 3661.500   53.565    7.978   21.765   26.954   41.692    5.076    3.259    2.604    2.263    2.113  446.040    3.577    2.242    3.393   44.688    0.649    0.603  -55.834    9.235  120.442    0.173    1.916    1.913
 3662.000   53.391    8.055   21.235   26.862   41.021    4.908    3.154    2.524    2.199    2.057  450.495    3.554    2.220    3.160   41.524    0.649    0.501  -56.975  -14.574  120.442    0.159    1.969    1.965
 3662.500   53.212    8.219   20.244   26.766   37.034    7.452    3.945    2.981    2.531    2.345  443.703    3.694    2.254    3.012   35.500    0.649    0.408  -57.756  -21.940  120.413    0.158    2.069    2.064
 3663.000   53.026    8.356   19.870   26.662   34.945   10.247    4.618    3.318    2.762    2.540  434.650    3.884    2.301    2.992   38.409    0.649    0.524  -58.243    1.121  120.413    0.129    2.021    2.016
 3663.500   52.835    8.367   20.397   26.554   35.403    7.478    3.761    2.835    2.415    2.243  436.718    3.895    2.290    2.977   49.309    0.649    0.791  -58.786   15.009  120.413    0.078    1.839    1.836
 3664.000   52.645    8.344   21.656   26.446   34.854    5.692    3.154    2.474    2.146    2.010  449.150    3.722    2.226    2.997   54.519    0.649    0.880  -59.336   -3.462  120.428    0.082    1.752    1.750
 3664.500   52.454    8.406   22.697   26.338   33.688    7.116    3.755    2.843    2.421    2.251  451.471    3.657    2.215    3.051   50.871    0.649    0.849  -59.870    3.950  120.428    0.135    1.813    1.811
 3665.000   52.260    8.510   23.339   26.227   34.353    8.490    4.333    3.193    2.677    2.476  442.266    3.715    2.261    3.096   43.966    0.649    0.682  -60.343   70.540  120.428    0.173    1.929    1.925
 3665.500   52.062    8.576   24.806   26.111   36.015    6.282    3.836    2.947    2.513    2.343  443.220    3.608    2.256    3.046   40.160    0.649    0.532  -60.597  131.468  120.413    0.178    1.992    1.987
 3666.000   51.861    8.602   27.518   25.992   37.633    4.768    3.333    2.669    2.321    2.186  460.674    3.297    2.171    2.935   41.825    0.649    0.541  -60.419  112.204  120.413    0.161    1.964    1.960
 3666.500   51.659    8.616   29.466   25.873   39.709    4.008    3.022    2.490    2.200    2.092  481.797    2.988    2.076    2.997   45.168    0.649    0.611  -59.285   39.255  120.399    0.143    1.909    1.905
 3667.000   51.456    8.661   29.803   25.753   40.547    3.650    2.869    2.412    2.157    2.070  492.936    2.790    2.029    3.121   46.746    0.649    0.651  -57.222   -8.484  120.399    0.138    1.882    1.879
 3667.500   51.251    8.758   29.772   25.630   38.410    3.489    2.830    2.418    2.184    2.117  490.691    2.691    2.038    3.052   46.810    0.649    0.668  -55.313  -24.853  120.399    0.142    1.881    1.878
 3668.000   51.040    8.855   30.268   25.502   36.324    3.260    2.742    2.392    2.188    2.147  489.130    2.577    2.044    2.860   47.898    0.648    0.711  -55.028  -43.488  120.384    0.139    1.863    1.860
 3668.500   50.826    8.899   31.165   25.370   37.193    2.706    2.363    2.131    1.990    1.979  505.817    2.361    1.977    2.814   51.150    0.648    0.755  -56.794  -56.042  120.384    0.124    1.809    1.806
 3669.000   50.610    8.904   32.159   25.236   40.268    2.386    2.112    1.948    1.846    1.857  548.166    2.069    1.824    2.890   54.130    0.648    0.801  -59.964  -46.544  120.384    0.111    1.759    1.757
 3669.500   50.393    8.903   33.282   25.102   43.265    1.953    1.733    1.630    1.568    1.589  618.347    1.766    1.617    2.961   54.855    0.648    0.705  -62.959  -41.406  120.384    0.108    1.747    1.745
 3670.000   50.177    8.903   34.218   24.969   44.900    1.761    1.530    1.449    1.405    1.431  700.064    1.528    1.428    2.932   54.092    0.648    0.616  -64.562  -47.700  120.384    0.108    1.759    1.757
 3670.500   49.961    8.927   34.458   24.835   45.220    1.683    1.415    1.338    1.301    1.329  762.706    1.395    1.311    2.809   53.461    0.648    0.558  -64.748  -42.351  120.384    0.104    1.770    1.768
 3671.000   49.743    8.994   34.375   24.699   45.308    1.639    1.330    1.249    1.216    1.242  797.382    1.343    1.254    2.737   53.612    0.648    0.524  -64.331  -37.553  120.370    0.100    1.767    1.765
 3671.500   49.521    9.076   34.556   24.560   44.708    1.705    1.320    1.224    1.191    1.216  816.538    1.330    1.225    2.810   54.331    0.648    0.528  -63.776  -48.043  120.370    0.106    1.755    1.754
 3672.000   49.296    9.125   34.359   24.417   43.143    1.756    1.305    1.196    1.162    1.184  821.165    1.346    1.218    2.939   55.593    0.648    0.541  -63.270  -44.657  120.370    0.122    1.734    1.733
 3672.500   49.069    9.142   33.447   24.272   42.301    1.886    1.339    1.210    1.174    1.194  797.947    1.414    1.253    3.035   57.449    0.648    0.585  -62.839  -16.364  120.370    0.134    1.703    1.702
 3673.000   48.841    9.147   32.324   24.127   42.397    2.280    1.502    1.330    1.287    1.308  751.463    1.533    1.331    3.111   59.751    0.648    0.697  -62.381   -6.921  120.370    0.131    1.665    1.664
 3673.500   48.612    9.145   30.598   23.981   41.812    2.562    1.616    1.413    1.367    1.387  703.147    1.664    1.422    3.205   62.200    0.648    0.806  -61.877  -24.446  120.355    0.112    1.623    1.624
 3674.000   48.384    9.149   27.935   23.836   40.926    2.742    1.710    1.488    1.443    1.461  647.054    1.827    1.545    3.268   62.038    0.648    0.844  -61.412  -39.290  120.355    0.098    1.626    1.626
