~Version Information
 VERS.                2.00:   CWLS log ASCII Standard -VERSION 2.00
 WRAP.                  NO:   One line per frame      
~Well Information Block
#MNEM.UNIT                  Well Data                    Data Description
#----.----   -----------------------------------------   -------------------------------
 STRT.FT                                      1214.000 : Starting Depth
 STOP.FT                                      3832.000 : Ending Depth
 STEP.FT                                         0.500 : Level Spacing
 NULL.                                       -999.2500 : Absent Value
 COMP.        LAVACA RIVER OPERATING CO., LLC          : Company
 WELL.        MYSKA, ROBERT #4 ST                      : Well
 FLD .        BOLING                                   : Field
 LOC .        593' FNEL & 414' FEL OF LEASE            : Location
 CNTY.        FORT BEND                                : County
 STAT.        TEXAS                                    : State
 CTRY.        USA                                      : Country
 SRVC.        Baker Hughes                             : Service Company
 DATE.        10-SEP-2014                              : Log Date
 API .        42-157-32993                             : API Number
 UWI .        42-157-32993                             : Unique Well ID
~Curve Information Block
#MNEM    .UNIT        API Codes     Curve Description
#--------.--------   ------------   -------------------------------
 DEPT    .FT         99 995 99  1 : Depth
 BVOL    .F3         70 995 99  1 : Borehole volume
 CAL     .IN         70 280 99  1 : Caliper
 CNCF    .PU         42 995 99  1 : Field normalized compensated neutron porosity
 CVOL    .F3         70 995 99  1 : Cement volume
 GR      .GAPI       30 310  1  1 : Gamma ray
 M1R1    .OHMM        8 120 10  1 : Vertical 1-foot resolution matched resistivity, 10-inch DOI
 M1R2    .OHMM        8 120 20  1 : Vertical 1-foot resolution matched resistivity, 20-inch DOI
 M1R3    .OHMM        8 120 30  1 : Vertical 1-foot resolution matched resistivity, 30-inch DOI
 M1R6    .OHMM        8 120 60  1 : Vertical 1-foot resolution matched resistivity, 60-inch DOI
 M1R9    .OHMM        8 120 90  1 : Vertical 1-foot resolution matched resistivity, 90-inch DOI
 M2CC9   .MMHO        8 110 90  1 : HDIL 2-foot resolution compressed conductivity, 90-inch DOI
 M2R2    .OHMM        8 120 20  1 : Vertical 2-foot resolution matched resistivity, 20-inch DOI
 M2R9    .OHMM        8 120 90  1 : Vertical 2-foot resolution matched resistivity, 90-inch DOI
 PE      .B/E        45 358  1  1 : Photo electric cross-section
 PORZC   .PU         99 995 99  1 : Corrected porosity
 RMA     .OHMM       99 995 99  1 : Calculated borehole resistivity for ABC processing
 RWAZC   .           94 935  7  1 : Apparent formation water resistivity (corrected)
 SP      .MV          1  10  1  1 : Spontaneous Potential
 TEN     .LBF        99 635 99  1 : Differential tension
 TXTEMP  .DEGF       99 995 99  1 : Temperature near transmitter coil
 ZCOR    .G/C3       45 356 99  1 : Density correction
 ZDEN    .G/C3       45 350  1  1 : Formation bulk density
 ZDNC    .G/C3       94 995 99  1 : Borehole size/mud weight corrected density
~Parameter Information Block
#MNEM.UNIT             Parameter Value                  Parameter Description
#----.----   ----------------------------------------   -------------------------------
 HIDE.       HIGH DEFINITION INDUCTION LOG^S          : Header Identifer
 HID1.       COMPENSATED Z-DENSILOG^S                 : Header Identifer
 HID2.       COMPENSATED NEUTRON LOG                  : Header Identifer
 HID3.       GAMMA RAY LOG                            : Header Identifer
 CMT4.       HAZELETT 1                               : Comment 4  
 FL1 .       414' FSEL & 567' F SOUTH RIVER OF THE    : Field Location 1
 FL2 .       BETTNE, C A SURVEY      A-11             : Field Location 2
 OS1 .       1" HDIL/GR                               : Other Services Line 1
 OS2 .       TVD                                      : Other Services Line 2
 PDAT.       GL                                       : Permanent Datum
 EPD .FT     72                                       : Elevation Of Perm. Datum
 LMF .       KB                                       : Log Measured From
 APD .FT     12                                       : Above Permanent Datum
 DMF .       KB                                       : Drilling Measured From
 EKB .FT     84                                       : Elevation Of Kelly Bushing
 EDF .FT     83                                       : Elevation Of Derrick Floor
 EGL .FT     72                                       : Elevation Of Ground Level
 RUN .       1                                        : Run Number
 TRIP.       1                                        : Trip Number
 SON .       90010                                    : Service Order Number
 TDD .FT     3830                                     : Total Depth - Driller
 TDL .FT     3832                                     : Total Depth - Logger
 BLI .FT     3830                                     : Bottom Log Interval
 TLI .FT     1214                                     : Top Log Interval
 CSIZ.IN     8.625                                    : Casing Size
 CBDR.FT     1212                                     : Casing Bottom - Driller
 CBLO.FT     1214                                     : Casing Bottom - Logger
 BS  .IN     7.875                                    : Bit Size
 DFT .       WBM                                      : Drilling Fluid Type
 DFD .LB/G   9.6                                      : Drilling Fluid Density
 DFV .S      43                                       : Drilling Fluid Viscosity
 DFPH.       10                                       : Drilling Fluid Ph
 DFL .C3     8                                        : Drilling Fluid Loss
 MSS .       FLOWLINE                                 : Mud Sample Source
 RMS .OHMM   1.12                                     : Resistivity Of Mud Sample
 MST .DEGF   75                                       : Mud Sample Temperature
 RMFS.OHMM   0.84                                     : Resistivity Of Mud Filtrate Sample
 MFST.DEGF   75                                       : Mud Filtrate Sample Temperature
 RMCS.OHMM   1.40                                     : Resistivity Of Mud Cake Sample
 MCST.DEGF   75                                       : Mud Cake Sample Temperature
 MFSS.       C                                        : Mud Filtrate Sample Source
 MCSS.       C                                        : Mud Cake Sample Source
 RMB .OHMM   0.71                                     : Mud Resistivity At Bht
 BHT .DEGF   122                                      : Bottom Hole Temperature
 TSC .       8 HRS                                    : Time Since Circulation
 MRT .DEGF   122                                      : Maximum Recorded Temperature
 LUN .       HL-6681                                  : Logging Unit Number
 LUL .       VICTORIA,TX                              : Logging Unit Location
 ENGI.       O. FADAYOMI                              : Engineer's Name
 WITN.       EPPS / PELLEGRINI                        : Witness' Name
 TSTR.       HDIL/ZDL/CN/GR                           : Title Service Mnemonic
 TSTG.       NA                                       : Title Service Mnemonic
 STUS.       FINAL                                    : Status
 LCNM.       BAKER ATLAS                              : Logging Company Name
 LCC .       150                                      : Logging Company Code
 OPMD.       OH.WIRE                                  : Operation Mode
 PANA.       O. FADAYOMI                              : Processing Analyst
 PCON.       BAKER ATLAS                              : Processing Contractor
~Other information
 BVOL = TOTAL BOREHOLE VOLUME                                                    
 CVOL = TOTAL CEMENT VOLUME, BASED ON 5.5" CSG                                   
 DENSITY MATRIX = SANDSTONE, 2.65 G/CC                                           
 NEUTRON MATRIX = SANDSTONE                                                      
 REPEAT SECTION LOGGED BELOW SURFACE CASING DUE TO TIGHT SPOTS AT TD.            
 HL-6681 CREW:  L. BRINKMAN, J. GUILLEN                                          
#  Curve Data
~A DEPT     BVOL     CAL      CNCF     CVOL     GR       M1R1     M1R2     M1R3     M1R6     M1R9     M2CC9    M2R2     M2R9     PE       PORZC    RMA      RWAZC    SP       TEN      TXTEMP   ZCOR     ZDEN     ZDNC    
# ...
 3119.500  279.820    8.791   37.469  163.785   92.642    0.863    0.827    0.833    0.853    0.865 1146.616    0.833    0.872    2.037   31.997    0.684    0.120  -27.522  -54.244  121.837    0.042    2.128    2.122
 3120.000  279.609    8.797   37.044  163.657   97.802    0.938    0.899    0.906    0.930    0.944 1087.691    0.876    0.919    2.006   30.521    0.684    0.119  -26.048  -29.399  121.837    0.053    2.153    2.146
 3120.500  279.398    8.823   37.319  163.528   98.996    0.946    0.908    0.915    0.940    0.954 1077.280    0.885    0.928    2.084   30.382    0.684    0.119  -27.607  -18.390  121.837    0.057    2.155    2.149
 3121.000  279.185    8.869   38.310  163.398   95.972    0.886    0.854    0.860    0.882    0.893 1095.417    0.872    0.913    2.151   31.347    0.684    0.119  -30.360  -26.064  121.837    0.053    2.139    2.133
 3121.500  278.970    8.904   39.370  163.265   90.901    0.871    0.839    0.845    0.865    0.874 1099.328    0.872    0.910    2.123   32.723    0.684    0.128  -32.791  -48.247  121.837    0.045    2.116    2.110
 3122.000  278.754    8.899   39.850  163.132   86.400    0.923    0.887    0.892    0.913    0.921 1074.956    0.896    0.930    2.047   33.864    0.684    0.145  -33.748  -66.193  121.837    0.041    2.097    2.091
 3122.500  278.538    8.859   39.995  162.998   85.387    1.010    0.967    0.971    0.991    0.998 1045.420    0.928    0.957    2.091   34.444    0.684    0.163  -32.683  -62.227  121.837    0.043    2.087    2.082
 3123.000  278.325    8.811   39.833  162.868   90.837    1.023    0.980    0.981    0.999    1.003 1036.640    0.943    0.965    2.289   34.413    0.684    0.163  -31.066  -48.671  121.837    0.046    2.088    2.082
 3123.500  278.113    8.787   39.211  162.739  100.298    0.961    0.924    0.922    0.935    0.936 1054.590    0.936    0.948    2.427   33.692    0.684    0.146  -29.994  -40.607  121.837    0.045    2.100    2.094
 3124.000  277.903    8.787   38.425  162.611  105.144    0.922    0.887    0.883    0.891    0.891 1084.718    0.918    0.922    2.423   32.888    0.684    0.131  -29.609  -42.090  121.852    0.042    2.113    2.107
 3124.500  277.692    8.792   37.982  162.483  102.629    0.923    0.886    0.879    0.884    0.882 1098.935    0.914    0.910    2.349   32.736    0.684    0.129  -29.542  -48.171  121.852    0.036    2.116    2.110
 3125.000  277.481    8.792   37.803  162.354   97.181    0.970    0.926    0.915    0.918    0.914 1078.142    0.940    0.928    2.206   32.576    0.684    0.132  -29.108  -31.114  121.852    0.030    2.118    2.113
 3125.500  277.270    8.789   37.499  162.226   93.194    1.056    1.001    0.985    0.986    0.980 1032.895    0.989    0.968    2.047   31.688    0.684    0.134  -27.661   13.734  121.823    0.031    2.133    2.127
 3126.000  277.060    8.787   37.292  162.098   92.294    1.150    1.085    1.062    1.060    1.052  997.800    1.032    1.002    1.978   30.619    0.684    0.133  -26.108   43.328  121.823    0.036    2.151    2.145
 3126.500  276.849    8.786   37.053  161.970   93.550    1.116    1.056    1.032    1.027    1.019  996.969    1.038    1.003    1.902   29.817    0.684    0.122  -25.827   34.554  121.823    0.041    2.164    2.158
 3127.000  276.639    8.787   36.352  161.842   94.394    1.056    1.001    0.978    0.971    0.964 1026.678    1.011    0.974    1.821   29.328    0.684    0.111  -27.188    6.159  121.852    0.041    2.172    2.166
 3127.500  276.428    8.797   35.705  161.714   94.481    1.024    0.968    0.945    0.936    0.930 1071.087    0.971    0.934    1.947   29.703    0.684    0.110  -29.474  -23.060  121.852    0.037    2.166    2.160
 3128.000  276.217    8.834   36.287  161.585   93.372    0.990    0.929    0.907    0.896    0.892 1118.446    0.931    0.894    2.174   30.771    0.684    0.114  -32.216  -37.250  121.852    0.032    2.148    2.142
 3128.500  276.003    8.911   37.813  161.454   90.442    0.975    0.906    0.883    0.870    0.868 1161.037    0.899    0.861    2.139   31.419    0.684    0.116  -34.927  -30.273  121.852    0.032    2.138    2.132
 3129.000  275.785    9.003   38.795  161.318   87.268    0.961    0.883    0.859    0.845    0.844 1197.843    0.873    0.835    1.911   31.451    0.684    0.113  -37.120  -23.639  121.852    0.034    2.137    2.131
 3129.500  275.563    9.063   38.827  161.179   86.009    0.942    0.857    0.832    0.818    0.817 1235.312    0.848    0.810    1.797   31.806    0.684    0.112  -39.069  -31.898  121.837    0.035    2.131    2.125
 3130.000  275.339    9.081   39.066  161.037   86.289    0.919    0.828    0.803    0.789    0.790 1277.266    0.820    0.783    1.901   32.874    0.683    0.117  -40.936  -43.051  121.837    0.031    2.114    2.108
 3130.500  275.114    9.081   39.908  160.895   86.255    0.894    0.802    0.777    0.763    0.766 1320.579    0.793    0.757    2.137   34.049    0.683    0.122  -42.540  -42.588  121.837    0.029    2.094    2.088
 3131.000  274.889    9.085   40.543  160.752   85.106    0.881    0.788    0.763    0.749    0.753 1362.681    0.766    0.734    2.277   34.590    0.683    0.124  -44.498  -36.809  121.837    0.032    2.085    2.079
 3131.500  274.664    9.094   40.411  160.610   83.785    0.847    0.758    0.735    0.723    0.728 1410.487    0.738    0.709    2.217   34.526    0.683    0.119  -47.375  -40.080  121.837    0.041    2.086    2.080
 3132.000  274.439    9.077   40.041  160.467   83.171    0.789    0.709    0.688    0.677    0.683 1475.162    0.703    0.678    2.091   34.348    0.683    0.111  -50.963  -46.872  121.837    0.050    2.089    2.083
 3132.500  274.215    9.024   40.238  160.325   81.699    0.736    0.662    0.644    0.634    0.640 1555.859    0.664    0.643    2.031   34.519    0.683    0.105  -55.046  -38.168  121.852    0.054    2.086    2.080
 3133.000  273.993    8.987   39.990  160.186   78.069    0.695    0.623    0.607    0.598    0.605 1638.832    0.629    0.610    2.024   35.225    0.683    0.103  -59.173  -14.250  121.852    0.053    2.075    2.069
 3133.500  273.773    9.011   39.028  160.048   72.394    0.683    0.609    0.592    0.584    0.591 1715.673    0.600    0.583    2.045   36.347    0.683    0.108  -62.785    2.154  121.852    0.048    2.056    2.050
 3134.000  273.551    9.066   38.611  159.909   66.712    0.672    0.597    0.581    0.572    0.581 1790.416    0.573    0.559    2.058   37.466    0.683    0.113  -65.350   -6.648  121.837    0.042    2.037    2.032
 3134.500  273.326    9.096   38.928  159.766   63.426    0.632    0.563    0.548    0.541    0.549 1869.980    0.548    0.535    2.052   38.275    0.683    0.112  -66.906  -34.080  121.837    0.035    2.024    2.018
 3135.000  273.100    9.087   38.813  159.623   61.880    0.583    0.522    0.509    0.503    0.511 1949.304    0.524    0.513    2.060   38.665    0.683    0.107  -67.643  -57.196  121.837    0.029    2.017    2.012
 3135.500  272.876    9.056   38.240  159.481   61.321    0.556    0.498    0.487    0.481    0.488 2009.546    0.508    0.498    2.130   38.682    0.683    0.102  -68.174  -53.440  121.837    0.024    2.017    2.012
 3136.000  272.652    9.039   37.710  159.340   63.435    0.547    0.490    0.478    0.472    0.479 2039.287    0.501    0.490    2.240   38.438    0.683    0.099  -69.003  -24.909  121.837    0.017    2.021    2.016
 3136.500  272.429    9.064   37.444  159.200   72.454    0.568    0.504    0.491    0.485    0.492 2057.357    0.498    0.486    2.257   37.644    0.683    0.097  -70.151   -2.853  121.852    0.008    2.034    2.029
 3137.000  272.204    9.124   37.914  159.057   86.233    0.583    0.514    0.500    0.493    0.500 2100.059    0.489    0.476    2.180   36.305    0.683    0.091  -71.012   -4.765  121.852    0.001    2.057    2.051
 3137.500  271.977    9.180   38.652  158.912   93.769    0.535    0.476    0.462    0.456    0.462 2172.054    0.474    0.460    2.220   35.521    0.683    0.080  -71.344  -12.998  121.852   -0.002    2.070    2.064
