~Version Information
 VERS.                2.00:   CWLS log ASCII Standard -VERSION 2.00
 WRAP.                  NO:   One line per frame      
~Well Information Block
#MNEM.UNIT                  Well Data                    Data Description
#----.----   -----------------------------------------   -------------------------------
 STRT.FT                                      1214.000 : Starting Depth
 STOP.FT                                      3832.000 : Ending Depth
 STEP.FT                                         0.500 : Level Spacing
 NULL.                                       -999.2500 : Absent Value
 COMP.        LAVACA RIVER OPERATING CO., LLC          : Company
 WELL.        MYSKA, ROBERT #4 ST                      : Well
 FLD .        BOLING                                   : Field
 LOC .        593' FNEL & 414' FEL OF LEASE            : Location
 CNTY.        FORT BEND                                : County
 STAT.        TEXAS                                    : State
 CTRY.        USA                                      : Country
 SRVC.        Baker Hughes                             : Service Company
 DATE.        10-SEP-2014                              : Log Date
 API .        42-157-32993                             : API Number
 UWI .        42-157-32993                             : Unique Well ID
~Curve Information Block
#MNEM    .UNIT        API Codes     Curve Description
#--------.--------   ------------   -------------------------------
 DEPT    .FT         99 995 99  1 : Depth
 BVOL    .F3         70 995 99  1 : Borehole volume
 CAL     .IN         70 280 99  1 : Caliper
 CNCF    .PU         42 995 99  1 : Field normalized compensated neutron porosity
 CVOL    .F3         70 995 99  1 : Cement volume
 GR      .GAPI       30 310  1  1 : Gamma ray
 M1R1    .OHMM        8 120 10  1 : Vertical 1-foot resolution matched resistivity, 10-inch DOI
 M1R2    .OHMM        8 120 20  1 : Vertical 1-foot resolution matched resistivity, 20-inch DOI
 M1R3    .OHMM        8 120 30  1 : Vertical 1-foot resolution matched resistivity, 30-inch DOI
 M1R6    .OHMM        8 120 60  1 : Vertical 1-foot resolution matched resistivity, 60-inch DOI
 M1R9    .OHMM        8 120 90  1 : Vertical 1-foot resolution matched resistivity, 90-inch DOI
 M2CC9   .MMHO        8 110 90  1 : HDIL 2-foot resolution compressed conductivity, 90-inch DOI
 M2R2    .OHMM        8 120 20  1 : Vertical 2-foot resolution matched resistivity, 20-inch DOI
 M2R9    .OHMM        8 120 90  1 : Vertical 2-foot resolution matched resistivity, 90-inch DOI
 PE      .B/E        45 358  1  1 : Photo electric cross-section
 PORZC   .PU         99 995 99  1 : Corrected porosity
 RMA     .OHMM       99 995 99  1 : Calculated borehole resistivity for ABC processing
 RWAZC   .           94 935  7  1 : Apparent formation water resistivity (corrected)
 SP      .MV          1  10  1  1 : Spontaneous Potential
 TEN     .LBF        99 635 99  1 : Differential tension
 TXTEMP  .DEGF       99 995 99  1 : Temperature near transmitter coil
 ZCOR    .G/C3       45 356 99  1 : Density correction
 ZDEN    .G/C3       45 350  1  1 : Formation bulk density
 ZDNC    .G/C3       94 995 99  1 : Borehole size/mud weight corrected density
~Parameter Information Block
#MNEM.UNIT             Parameter Value                  Parameter Description
#----.----   ----------------------------------------   -------------------------------
 HIDE.       HIGH DEFINITION INDUCTION LOG^S          : Header Identifer
 HID1.       COMPENSATED Z-DENSILOG^S                 : Header Identifer
 HID2.       COMPENSATED NEUTRON LOG                  : Header Identifer
 HID3.       GAMMA RAY LOG                            : Header Identifer
 CMT4.       HAZELETT 1                               : Comment 4  
 FL1 .       414' FSEL & 567' F SOUTH RIVER OF THE    : Field Location 1
 FL2 .       BETTNE, C A SURVEY      A-11             : Field Location 2
 OS1 .       1" HDIL/GR                               : Other Services Line 1
 OS2 .       TVD                                      : Other Services Line 2
 PDAT.       GL                                       : Permanent Datum
 EPD .FT     72                                       : Elevation Of Perm. Datum
 LMF .       KB                                       : Log Measured From
 APD .FT     12                                       : Above Permanent Datum
 DMF .       KB                                       : Drilling Measured From
 EKB .FT     84                                       : Elevation Of Kelly Bushing
 EDF .FT     83                                       : Elevation Of Derrick Floor
 EGL .FT     72                                       : Elevation Of Ground Level
 RUN .       1                                        : Run Number
 TRIP.       1                                        : Trip Number
 SON .       90010                                    : Service Order Number
 TDD .FT     3830                                     : Total Depth - Driller
 TDL .FT     3832                                     : Total Depth - Logger
 BLI .FT     3830                                     : Bottom Log Interval
 TLI .FT     1214                                     : Top Log Interval
 CSIZ.IN     8.625                                    : Casing Size
 CBDR.FT     1212                                     : Casing Bottom - Driller
 CBLO.FT     1214                                     : Casing Bottom - Logger
 BS  .IN     7.875                                    : Bit Size
 DFT .       WBM                                      : Drilling Fluid Type
 DFD .LB/G   9.6                                      : Drilling Fluid Density
 DFV .S      43                                       : Drilling Fluid Viscosity
 DFPH.       10                                       : Drilling Fluid Ph
 DFL .C3     8                                        : Drilling Fluid Loss
 MSS .       FLOWLINE                                 : Mud Sample Source
 RMS .OHMM   1.12                                     : Resistivity Of Mud Sample
 MST .DEGF   75                                       : Mud Sample Temperature
 RMFS.OHMM   0.84                                     : Resistivity Of Mud Filtrate Sample
 MFST.DEGF   75                                       : Mud Filtrate Sample Temperature
 RMCS.OHMM   1.40                                     : Resistivity Of Mud Cake Sample
 MCST.DEGF   75                                       : Mud Cake Sample Temperature
 MFSS.       C                                        : Mud Filtrate Sample Source
 MCSS.       C                                        : Mud Cake Sample Source
 RMB .OHMM   0.71                                     : Mud Resistivity At Bht
 BHT .DEGF   122                                      : Bottom Hole Temperature
 TSC .       8 HRS                                    : Time Since Circulation
 MRT .DEGF   122                                      : Maximum Recorded Temperature
 LUN .       HL-6681                                  : Logging Unit Number
 LUL .       VICTORIA,TX                              : Logging Unit Location
 ENGI.       O. FADAYOMI                              : Engineer's Name
 WITN.       EPPS / PELLEGRINI                        : Witness' Name
 TSTR.       HDIL/ZDL/CN/GR                           : Title Service Mnemonic
 TSTG.       NA                                       : Title Service Mnemonic
 STUS.       FINAL                                    : Status
 LCNM.       BAKER ATLAS                              : Logging Company Name
 LCC .       150                                      : Logging Company Code
 OPMD.       OH.WIRE                                  : Operation Mode
 PANA.       O. FADAYOMI                              : Processing Analyst
 PCON.       BAKER ATLAS                              : Processing Contractor
~Other information
 BVOL = TOTAL BOREHOLE VOLUME                                                    
 CVOL = TOTAL CEMENT VOLUME, BASED ON 5.5" CSG                                   
 DENSITY MATRIX = SANDSTONE, 2.65 G/CC                                           
 NEUTRON MATRIX = SANDSTONE                                                      
 REPEAT SECTION LOGGED BELOW SURFACE CASING DUE TO TIGHT SPOTS AT TD.            
 HL-6681 CREW:  L. BRINKMAN, J. GUILLEN                                          
#  Curve Data
~A DEPT     BVOL     CAL      CNCF     CVOL     GR       M1R1     M1R2     M1R3     M1R6     M1R9     M2CC9    M2R2     M2R9     PE       PORZC    RMA      RWAZC    SP       TEN      TXTEMP   ZCOR     ZDEN     ZDNC    
# ...
 3304.500  198.383    8.020   39.659  112.871   91.451    0.872    0.799    0.783    0.785    0.794 1354.730    0.742    0.738    2.700   32.757    0.672    0.116  -10.310   -6.708  121.721    0.042    2.115    2.110
 3305.000  198.208    8.014   39.054  112.779   90.823    0.794    0.731    0.719    0.722    0.733 1411.436    0.707    0.708    2.619   33.675    0.672    0.114  -14.110    3.267  121.721    0.049    2.099    2.094
 3305.500  198.033    8.004   38.971  112.686   86.739    0.695    0.645    0.637    0.640    0.651 1510.025    0.656    0.662    2.485   34.449    0.672    0.106  -18.900   15.587  121.736    0.059    2.087    2.082
 3306.000  197.858    7.998   38.708  112.594   81.238    0.659    0.612    0.606    0.610    0.621 1597.954    0.616    0.626    2.425   35.299    0.672    0.107  -24.361    4.502  121.736    0.061    2.072    2.068
 3306.500  197.684    7.996   37.989  112.502   76.388    0.642    0.593    0.589    0.593    0.606 1656.525    0.591    0.604    2.347   35.965    0.672    0.109  -30.012  -31.622  121.721    0.056    2.061    2.057
 3307.000  197.509    7.996   37.515  112.410   71.824    0.616    0.566    0.563    0.569    0.582 1700.291    0.572    0.588    2.223   36.689    0.672    0.109  -35.017  -54.626  121.721    0.048    2.049    2.045
 3307.500  197.335    7.996   37.807  112.318   66.559    0.607    0.554    0.552    0.559    0.573 1733.785    0.558    0.577    2.164   37.945    0.672    0.115  -38.799  -33.657  121.721    0.041    2.028    2.024
 3308.000  197.161    7.996   38.461  112.226   61.951    0.604    0.548    0.546    0.555    0.569 1758.810    0.547    0.569    2.185   39.162    0.671    0.122  -40.873    1.932  121.721    0.037    2.008    2.004
 3308.500  196.986    7.996   38.848  112.134   60.270    0.610    0.552    0.551    0.561    0.576 1794.162    0.535    0.557    2.234   39.585    0.671    0.127  -40.897   12.592  121.721    0.041    2.001    1.997
 3309.000  196.812    7.996   38.705  112.043   61.406    0.590    0.536    0.534    0.545    0.558 1852.308    0.519    0.540    2.329   39.540    0.671    0.123  -38.538   -1.368  121.721    0.057    2.002    1.998
 3309.500  196.638    7.996   38.441  111.951   64.460    0.534    0.489    0.487    0.496    0.506 1899.508    0.509    0.526    2.517   39.088    0.671    0.108  -34.365  -16.332  121.721    0.084    2.009    2.005
 3310.000  196.463    7.994   38.519  111.859   69.967    0.533    0.487    0.482    0.490    0.498 1883.415    0.518    0.531    2.738   37.910    0.671    0.100  -29.597  -27.375  121.721    0.109    2.029    2.024
 3310.500  196.289    7.989   38.590  111.767   76.564    0.597    0.534    0.523    0.532    0.538 1793.701    0.553    0.558    2.829   36.560    0.671    0.100  -24.710  -43.456  121.721    0.110    2.051    2.047
 3311.000  196.115    7.981   36.878  111.676   78.687    0.678    0.589    0.569    0.577    0.581 1652.594    0.614    0.605    2.784   34.877    0.671    0.097  -19.533  -57.033  121.736    0.092    2.079    2.075
 3311.500  195.941    7.977   31.206  111.584   71.221    0.735    0.619    0.589    0.596    0.596 1450.851    0.720    0.689    2.839   30.869    0.671    0.077  -14.032  -57.994  121.736    0.075    2.146    2.141
 3312.000  195.768    7.982   24.527  111.493   56.822    1.094    0.839    0.773    0.779    0.776 1174.140    0.928    0.852    3.160   23.109    0.671    0.054   -8.483  -50.392  121.736    0.061    2.275    2.269
 3312.500  195.594    7.999   20.758  111.402   43.258    2.431    1.426    1.225    1.226    1.206  916.987    1.268    1.091    3.673   12.938    0.671    0.024   -3.848  -38.683  121.721    0.052    2.444    2.437
 3313.000  195.419    8.024   19.511  111.310   35.831    4.020    1.883    1.531    1.511    1.465  775.478    1.603    1.290    3.963    6.913    0.671    0.008   -0.940  -27.699  121.721    0.047    2.543    2.536
 3313.500  195.243    8.050   19.795  111.216   35.369    4.851    2.187    1.736    1.686    1.613  736.951    1.741    1.357    3.881   11.281    0.671    0.024    0.526  -32.889  121.721    0.035    2.471    2.464
 3314.000  195.066    8.073   21.530  111.122   41.620    3.522    2.095    1.711    1.640    1.560  774.039    1.638    1.292    3.748   20.204    0.671    0.081    1.155  -49.357  121.707    0.037    2.323    2.317
 3314.500  194.888    8.090   24.809  111.026   53.656    2.032    1.585    1.385    1.327    1.269  871.686    1.399    1.147    3.486   26.420    0.671    0.117    1.427  -56.657  121.707    0.060    2.220    2.214
 3315.000  194.710    8.099   29.188  110.930   67.209    1.354    1.207    1.108    1.065    1.026 1001.821    1.168    0.998    3.141   28.773    0.671    0.114    1.711  -61.064  121.707    0.085    2.181    2.175
 3315.500  194.531    8.106   33.965  110.834   77.891    1.038    0.993    0.940    0.907    0.879 1103.031    1.028    0.907    2.859   29.033    0.671    0.099    2.119  -69.093  121.707    0.095    2.177    2.171
 3316.000  194.352    8.113   39.482  110.737   84.542    0.944    0.942    0.907    0.876    0.851 1140.425    0.974    0.877    2.698   28.732    0.671    0.094    2.464  -67.877  121.707    0.094    2.182    2.176
 3316.500  194.172    8.117   43.097  110.640   88.340    0.955    0.979    0.952    0.921    0.895 1134.445    0.964    0.881    2.607   28.858    0.671    0.100    2.432  -64.174  121.721    0.092    2.180    2.174
 3317.000  193.992    8.122   43.116  110.543   88.742    0.916    0.943    0.923    0.896    0.874 1131.658    0.954    0.884    2.560   30.560    0.671    0.110    2.213  -75.692  121.721    0.086    2.151    2.146
 3317.500  193.812    8.131   41.681  110.445   86.265    0.886    0.896    0.878    0.858    0.840 1155.846    0.923    0.865    2.613   33.916    0.671    0.133    2.220  -92.401  121.721    0.076    2.096    2.090
 3318.000  193.632    8.139   40.547  110.347   83.777    0.894    0.872    0.853    0.839    0.825 1201.431    0.880    0.832    2.725   35.866    0.671    0.147    2.596  -88.862  121.707    0.072    2.063    2.058
 3318.500  193.451    8.141   40.154  110.249   83.159    0.809    0.759    0.743    0.736    0.728 1220.982    0.859    0.819    2.856   33.441    0.671    0.111    3.017  -65.442  121.707    0.073    2.103    2.098
 3319.000  193.270    8.141   39.789  110.151   80.865    0.930    0.834    0.813    0.810    0.803 1148.530    0.907    0.871    3.155   27.724    0.671    0.082    3.651  -47.966  121.707    0.069    2.199    2.193
 3319.500  193.090    8.147   38.664  110.053   75.116    1.370    1.146    1.111    1.116    1.109 1016.522    1.013    0.984    3.650   23.699    0.671    0.081    4.165  -53.518  121.707    0.056    2.265    2.259
 3320.000  192.909    8.162   37.765  109.954   71.576    1.414    1.194    1.167    1.186    1.185  945.514    1.064    1.058    3.796   22.314    0.671    0.076    4.449  -72.733  121.707    0.050    2.288    2.282
 3320.500  192.727    8.177   38.731  109.855   74.061    1.436    1.267    1.260    1.295    1.301  979.228    1.000    1.021    3.622   20.183    0.671    0.067    4.804  -77.970  121.707    0.073    2.324    2.317
 3321.000  192.544    8.184   40.618  109.755   80.399    0.986    0.945    0.956    0.983    0.990 1082.059    0.885    0.924    3.430   20.390    0.671    0.052    5.253  -56.634  121.721    0.100    2.320    2.314
 3321.500  192.362    8.185   41.748  109.655   86.384    0.733    0.734    0.750    0.773    0.780 1159.814    0.809    0.862    3.108   25.172    0.671    0.065    5.390  -33.256  121.721    0.102    2.241    2.235
 3322.000  192.179    8.185   42.601  109.554   90.216    0.748    0.767    0.793    0.819    0.828 1171.177    0.791    0.854    2.762   29.568    0.671    0.097    5.514  -37.510  121.721    0.099    2.168    2.162
 3322.500  191.996    8.186   44.337  109.454   92.622    0.765    0.794    0.824    0.851    0.861 1149.299    0.803    0.870    2.598   31.269    0.671    0.114    5.631  -62.540  121.707    0.099    2.140    2.134
