~Version Information
 VERS.                2.00:   CWLS log ASCII Standard -VERSION 2.00
 WRAP.                  NO:   One line per frame      
~Well Information Block
#MNEM.UNIT                  Well Data                    Data Description
#----.----   -----------------------------------------   -------------------------------
 STRT.FT                                      1214.000 : Starting Depth
 STOP.FT                                      3832.000 : Ending Depth
 STEP.FT                                         0.500 : Level Spacing
 NULL.                                       -999.2500 : Absent Value
 COMP.        LAVACA RIVER OPERATING CO., LLC          : Company
 WELL.        MYSKA, ROBERT #4 ST                      : Well
 FLD .        BOLING                                   : Field
 LOC .        593' FNEL & 414' FEL OF LEASE            : Location
 CNTY.        FORT BEND                                : County
 STAT.        TEXAS                                    : State
 CTRY.        USA                                      : Country
 SRVC.        Baker Hughes                             : Service Company
 DATE.        10-SEP-2014                              : Log Date
 API .        42-157-32993                             : API Number
 UWI .        42-157-32993                             : Unique Well ID
~Curve Information Block
#MNEM    .UNIT        API Codes     Curve Description
#--------.--------   ------------   -------------------------------
 DEPT    .FT         99 995 99  1 : Depth
 BVOL    .F3         70 995 99  1 : Borehole volume
 CAL     .IN         70 280 99  1 : Caliper
 CNCF    .PU         42 995 99  1 : Field normalized compensated neutron porosity
 CVOL    .F3         70 995 99  1 : Cement volume
 GR      .GAPI       30 310  1  1 : Gamma ray
 M1R1    .OHMM        8 120 10  1 : Vertical 1-foot resolution matched resistivity, 10-inch DOI
 M1R2    .OHMM        8 120 20  1 : Vertical 1-foot resolution matched resistivity, 20-inch DOI
 M1R3    .OHMM        8 120 30  1 : Vertical 1-foot resolution matched resistivity, 30-inch DOI
 M1R6    .OHMM        8 120 60  1 : Vertical 1-foot resolution matched resistivity, 60-inch DOI
 M1R9    .OHMM        8 120 90  1 : Vertical 1-foot resolution matched resistivity, 90-inch DOI
 M2CC9   .MMHO        8 110 90  1 : HDIL 2-foot resolution compressed conductivity, 90-inch DOI
 M2R2    .OHMM        8 120 20  1 : Vertical 2-foot resolution matched resistivity, 20-inch DOI
 M2R9    .OHMM        8 120 90  1 : Vertical 2-foot resolution matched resistivity, 90-inch DOI
 PE      .B/E        45 358  1  1 : Photo electric cross-section
 PORZC   .PU         99 995 99  1 : Corrected porosity
 RMA     .OHMM       99 995 99  1 : Calculated borehole resistivity for ABC processing
 RWAZC   .           94 935  7  1 : Apparent formation water resistivity (corrected)
 SP      .MV          1  10  1  1 : Spontaneous Potential
 TEN     .LBF        99 635 99  1 : Differential tension
 TXTEMP  .DEGF       99 995 99  1 : Temperature near transmitter coil
 ZCOR    .G/C3       45 356 99  1 : Density correction
 ZDEN    .G/C3       45 350  1  1 : Formation bulk density
 ZDNC    .G/C3       94 995 99  1 : Borehole size/mud weight corrected density
~Parameter Information Block
#MNEM.UNIT             Parameter Value                  Parameter Description
#----.----   ----------------------------------------   -------------------------------
 HIDE.       HIGH DEFINITION INDUCTION LOG^S          : Header Identifer
 HID1.       COMPENSATED Z-DENSILOG^S                 : Header Identifer
 HID2.       COMPENSATED NEUTRON LOG                  : Header Identifer
 HID3.       GAMMA RAY LOG                            : Header Identifer
 CMT4.       HAZELETT 1                               : Comment 4  
 FL1 .       414' FSEL & 567' F SOUTH RIVER OF THE    : Field Location 1
 FL2 .       BETTNE, C A SURVEY      A-11             : Field Location 2
 OS1 .       1" HDIL/GR                               : Other Services Line 1
 OS2 .       TVD                                      : Other Services Line 2
 PDAT.       GL                                       : Permanent Datum
 EPD .FT     72                                       : Elevation Of Perm. Datum
 LMF .       KB                                       : Log Measured From
 APD .FT     12                                       : Above Permanent Datum
 DMF .       KB                                       : Drilling Measured From
 EKB .FT     84                                       : Elevation Of Kelly Bushing
 EDF .FT     83                                       : Elevation Of Derrick Floor
 EGL .FT     72                                       : Elevation Of Ground Level
 RUN .       1                                        : Run Number
 TRIP.       1                                        : Trip Number
 SON .       90010                                    : Service Order Number
 TDD .FT     3830                                     : Total Depth - Driller
 TDL .FT     3832                                     : Total Depth - Logger
 BLI .FT     3830                                     : Bottom Log Interval
 TLI .FT     1214                                     : Top Log Interval
 CSIZ.IN     8.625                                    : Casing Size
 CBDR.FT     1212                                     : Casing Bottom - Driller
 CBLO.FT     1214                                     : Casing Bottom - Logger
 BS  .IN     7.875                                    : Bit Size
 DFT .       WBM                                      : Drilling Fluid Type
 DFD .LB/G   9.6                                      : Drilling Fluid Density
 DFV .S      43                                       : Drilling Fluid Viscosity
 DFPH.       10                                       : Drilling Fluid Ph
 DFL .C3     8                                        : Drilling Fluid Loss
 MSS .       FLOWLINE                                 : Mud Sample Source
 RMS .OHMM   1.12                                     : Resistivity Of Mud Sample
 MST .DEGF   75                                       : Mud Sample Temperature
 RMFS.OHMM   0.84                                     : Resistivity Of Mud Filtrate Sample
 MFST.DEGF   75                                       : Mud Filtrate Sample Temperature
 RMCS.OHMM   1.40                                     : Resistivity Of Mud Cake Sample
 MCST.DEGF   75                                       : Mud Cake Sample Temperature
 MFSS.       C                                        : Mud Filtrate Sample Source
 MCSS.       C                                        : Mud Cake Sample Source
 RMB .OHMM   0.71                                     : Mud Resistivity At Bht
 BHT .DEGF   122                                      : Bottom Hole Temperature
 TSC .       8 HRS                                    : Time Since Circulation
 MRT .DEGF   122                                      : Maximum Recorded Temperature
 LUN .       HL-6681                                  : Logging Unit Number
 LUL .       VICTORIA,TX                              : Logging Unit Location
 ENGI.       O. FADAYOMI                              : Engineer's Name
 WITN.       EPPS / PELLEGRINI                        : Witness' Name
 TSTR.       HDIL/ZDL/CN/GR                           : Title Service Mnemonic
 TSTG.       NA                                       : Title Service Mnemonic
 STUS.       FINAL                                    : Status
 LCNM.       BAKER ATLAS                              : Logging Company Name
 LCC .       150                                      : Logging Company Code
 OPMD.       OH.WIRE                                  : Operation Mode
 PANA.       O. FADAYOMI                              : Processing Analyst
 PCON.       BAKER ATLAS                              : Processing Contractor
~Other information
 BVOL = TOTAL BOREHOLE VOLUME                                                    
 CVOL = TOTAL CEMENT VOLUME, BASED ON 5.5" CSG                                   
 DENSITY MATRIX = SANDSTONE, 2.65 G/CC                                           
 NEUTRON MATRIX = SANDSTONE                                                      
 REPEAT SECTION LOGGED BELOW SURFACE CASING DUE TO TIGHT SPOTS AT TD.            
 HL-6681 CREW:  L. BRINKMAN, J. GUILLEN                                          
#  Curve Data
~A DEPT     BVOL     CAL      CNCF     CVOL     GR       M1R1     M1R2     M1R3     M1R6     M1R9     M2CC9    M2R2     M2R9     PE       PORZC    RMA      RWAZC    SP       TEN      TXTEMP   ZCOR     ZDEN     ZDNC    
# ...
 2786.500  413.331    9.697   35.582  242.356   59.275    1.565    1.710    1.832    1.928    1.999  442.337    1.933    2.261    3.118   20.100    0.708    0.102  -35.863  -73.649  121.503    0.088    2.326    2.318
 2787.000  413.075    9.623   35.573  242.183   57.893    1.825    1.991    2.140    2.261    2.352  434.860    1.947    2.300    3.161   17.629    0.708    0.091  -35.704  -52.644  121.503    0.075    2.366    2.359
 2787.500  412.825    9.462   36.083  242.015   57.049    2.120    2.328    2.504    2.654    2.765  429.178    1.961    2.330    3.312   20.114    0.708    0.142  -35.364  -10.464  121.503    0.042    2.325    2.318
 2788.000  412.582    9.441   37.847  241.854   56.475    1.834    1.993    2.146    2.277    2.374  454.568    1.847    2.200    3.350   24.642    0.708    0.188  -35.112   11.247  121.503    0.025    2.250    2.243
 2788.500  412.337    9.539   39.601  241.692   55.361    1.542    1.672    1.799    1.910    1.992  502.322    1.671    1.991    3.393   27.329    0.708    0.198  -34.870  -14.335  121.503    0.032    2.206    2.199
 2789.000  412.088    9.601   41.083  241.526   54.599    1.393    1.511    1.626    1.725    1.800  543.585    1.545    1.840    3.482   27.833    0.708    0.186  -34.419  -49.344  121.503    0.049    2.198    2.191
 2789.500  411.837    9.541   42.384  241.357   55.218    1.355    1.474    1.586    1.682    1.754  565.367    1.487    1.769    3.558   27.420    0.708    0.175  -33.946  -51.383  121.503    0.062    2.204    2.198
 2790.000  411.591    9.408   42.366  241.193   56.315    1.348    1.471    1.582    1.677    1.748  574.787    1.464    1.740    3.541   26.760    0.708    0.166  -33.455  -37.889  121.503    0.061    2.215    2.208
 2790.500  411.351    9.301   41.067  241.036   57.057    1.347    1.472    1.582    1.677    1.747  583.371    1.445    1.714    3.428   26.087    0.708    0.157  -32.992  -36.394  121.503    0.053    2.226    2.220
 2791.000  411.116    9.237   40.464  240.883   58.597    1.329    1.450    1.556    1.649    1.716  598.920    1.411    1.670    3.319   25.745    0.708    0.150  -32.844  -34.264  121.503    0.045    2.232    2.225
 2791.500  410.884    9.175   41.461  240.734   63.057    1.256    1.361    1.457    1.544    1.606  620.804    1.366    1.611    3.359   26.547    0.707    0.150  -33.250  -22.538  121.503    0.044    2.219    2.212
 2792.000  410.655    9.102   43.074  240.587   67.065    1.217    1.308    1.396    1.479    1.537  638.814    1.332    1.565    3.494   29.068    0.707    0.174  -34.020  -12.886  121.503    0.053    2.177    2.170
 2792.500  410.430    9.042   44.332  240.445   67.030    1.212    1.292    1.373    1.455    1.512  640.563    1.334    1.561    3.491   31.713    0.707    0.206  -35.001  -15.048  121.518    0.080    2.133    2.127
 2793.000  410.208    9.003   44.984  240.305   66.338    1.238    1.310    1.386    1.470    1.526  616.688    1.390    1.622    3.355   31.641    0.707    0.207  -35.645  -28.542  121.518    0.115    2.134    2.128
 2793.500  409.987    8.930   44.987  240.167   69.649    1.436    1.521    1.607    1.705    1.768  576.291    1.493    1.735    3.224   28.828    0.707    0.197  -35.598  -40.311  121.518    0.130    2.181    2.174
 2794.000  409.771    8.822   43.522  240.033   75.042    1.576    1.670    1.762    1.869    1.937  550.377    1.567    1.817    3.193   25.645    0.707    0.168  -34.906  -33.795  121.503    0.116    2.234    2.227
 2794.500  409.560    8.789   41.689  239.904   78.105    1.471    1.554    1.638    1.737    1.799  551.692    1.566    1.813    3.181   24.958    0.707    0.147  -33.965  -13.804  121.503    0.084    2.245    2.238
 2795.000  409.348    8.874   40.897  239.775   78.112    1.460    1.545    1.629    1.726    1.786  567.225    1.525    1.763    3.119   26.540    0.707    0.166  -33.225    3.735  121.503    0.053    2.219    2.212
 2795.500  409.132    8.944   41.025  239.642   76.564    1.418    1.503    1.586    1.677    1.735  585.826    1.479    1.707    3.033   28.102    0.707    0.183  -32.908   10.475  121.518    0.037    2.193    2.186
 2796.000  408.915    8.833   41.895  239.507   74.251    1.372    1.458    1.540    1.626    1.681  606.706    1.430    1.648    2.931   28.590    0.707    0.184  -32.825   16.123  121.518    0.035    2.185    2.178
 2796.500  408.705    8.574   43.797  239.380   71.817    1.307    1.392    1.471    1.550    1.602  629.936    1.380    1.587    2.913   27.969    0.707    0.167  -32.844   34.079  121.518    0.040    2.195    2.189
 2797.000  408.507    8.349   45.248  239.265   70.443    1.235    1.315    1.389    1.462    1.510  648.375    1.343    1.542    3.043   27.344    0.707    0.150  -32.666   44.888  121.518    0.041    2.205    2.199
 2797.500  408.319    8.259   44.258  239.158   70.848    1.245    1.327    1.402    1.475    1.522  654.246    1.333    1.528    3.187   27.728    0.707    0.156  -32.013   29.254  121.518    0.034    2.199    2.192
 2798.000  408.133    8.243   42.737  239.055   71.708    1.253    1.333    1.407    1.481    1.527  651.916    1.340    1.534    3.179   28.830    0.707    0.170  -30.979    8.493  121.518    0.026    2.180    2.174
 2798.500  407.948    8.230   42.563  238.952   71.169    1.254    1.330    1.403    1.477    1.521  649.653    1.346    1.539    3.088   29.571    0.707    0.179  -29.724    4.027  121.518    0.022    2.168    2.162
 2799.000  407.763    8.219   43.243  238.850   67.383    1.261    1.331    1.404    1.478    1.521  647.308    1.352    1.545    3.012   29.105    0.707    0.173  -28.498   20.146  121.518    0.026    2.176    2.170
 2799.500  407.579    8.216   43.732  238.749   62.258    1.291    1.359    1.433    1.509    1.550  641.465    1.367    1.559    3.012   27.487    0.707    0.156  -27.531   37.584  121.518    0.035    2.203    2.196
 2800.000  407.395    8.215   44.009  238.647   58.521    1.327    1.396    1.471    1.550    1.589  632.595    1.389    1.581    3.100   25.883    0.707    0.140  -26.811   31.027  121.532    0.044    2.229    2.223
 2800.500  407.211    8.214   43.580  238.546   55.521    1.339    1.410    1.486    1.564    1.600  623.481    1.414    1.604    3.156   25.380    0.707    0.135  -26.236   11.411  121.532    0.047    2.237    2.231
 2801.000  407.027    8.211   42.326  238.444   52.942    1.365    1.444    1.522    1.600    1.633  616.099    1.436    1.623    3.134   25.618    0.707    0.141  -25.862    7.732  121.532    0.044    2.234    2.227
 2801.500  406.843    8.202   41.304  238.343   52.214    1.391    1.482    1.562    1.640    1.670  613.194    1.448    1.631    3.103   25.985    0.707    0.149  -25.606   15.570  121.532    0.041    2.227    2.221
 2802.000  406.660    8.191   41.889  238.242   53.717    1.359    1.457    1.536    1.610    1.635  616.735    1.445    1.621    3.094   26.741    0.707    0.155  -25.429   24.908  121.532    0.040    2.215    2.209
 2802.500  406.477    8.185   43.420  238.142   55.291    1.315    1.416    1.494    1.563    1.583  622.831    1.437    1.606    3.040   27.753    0.707    0.162  -25.263   27.698  121.532    0.040    2.198    2.192
 2803.000  406.294    8.185   44.501  238.041   56.435    1.311    1.419    1.497    1.564    1.579  624.612    1.438    1.601    2.899   28.038    0.707    0.165  -25.091   17.155  121.532    0.041    2.193    2.187
 2803.500  406.111    8.185   44.585  237.941   57.471    1.338    1.455    1.536    1.601    1.612  620.815    1.453    1.611    2.787   27.360    0.707    0.160  -24.921   11.491  121.532    0.043    2.205    2.199
 2804.000  405.929    8.183   44.124  237.841   58.530    1.348    1.469    1.550    1.613    1.619  615.497    1.474    1.625    2.844   26.755    0.707    0.153  -24.802   25.712  121.547    0.042    2.215    2.209
 2804.500  405.746    8.182   43.639  237.741   58.473    1.356    1.480    1.559    1.617    1.619  610.922    1.497    1.637    3.018   26.803    0.707    0.154  -24.753   41.012  121.547    0.038    2.214    2.208
