~Version Information
 VERS.                2.00:   CWLS log ASCII Standard -VERSION 2.00
 WRAP.                  NO:   One line per frame      
~Well Information Block
#MNEM.UNIT                  Well Data                    Data Description
#----.----   -----------------------------------------   -------------------------------
 STRT.FT                                      1214.000 : Starting Depth
 STOP.FT                                      3832.000 : Ending Depth
 STEP.FT                                         0.500 : Level Spacing
 NULL.                                       -999.2500 : Absent Value
 COMP.        LAVACA RIVER OPERATING CO., LLC          : Company
 WELL.        MYSKA, ROBERT #4 ST                      : Well
 FLD .        BOLING                                   : Field
 LOC .        593' FNEL & 414' FEL OF LEASE            : Location
 CNTY.        FORT BEND                                : County
 STAT.        TEXAS                                    : State
 CTRY.        USA                                      : Country
 SRVC.        Baker Hughes                             : Service Company
 DATE.        10-SEP-2014                              : Log Date
 API .        42-157-32993                             : API Number
 UWI .        42-157-32993                             : Unique Well ID
~Curve Information Block
#MNEM    .UNIT        API Codes     Curve Description
#--------.--------   ------------   -------------------------------
 DEPT    .FT         99 995 99  1 : Depth
 BVOL    .F3         70 995 99  1 : Borehole volume
 CAL     .IN         70 280 99  1 : Caliper
 CNCF    .PU         42 995 99  1 : Field normalized compensated neutron porosity
 CVOL    .F3         70 995 99  1 : Cement volume
 GR      .GAPI       30 310  1  1 : Gamma ray
 M1R1    .OHMM        8 120 10  1 : Vertical 1-foot resolution matched resistivity, 10-inch DOI
 M1R2    .OHMM        8 120 20  1 : Vertical 1-foot resolution matched resistivity, 20-inch DOI
 M1R3    .OHMM        8 120 30  1 : Vertical 1-foot resolution matched resistivity, 30-inch DOI
 M1R6    .OHMM        8 120 60  1 : Vertical 1-foot resolution matched resistivity, 60-inch DOI
 M1R9    .OHMM        8 120 90  1 : Vertical 1-foot resolution matched resistivity, 90-inch DOI
 M2CC9   .MMHO        8 110 90  1 : HDIL 2-foot resolution compressed conductivity, 90-inch DOI
 M2R2    .OHMM        8 120 20  1 : Vertical 2-foot resolution matched resistivity, 20-inch DOI
 M2R9    .OHMM        8 120 90  1 : Vertical 2-foot resolution matched resistivity, 90-inch DOI
 PE      .B/E        45 358  1  1 : Photo electric cross-section
 PORZC   .PU         99 995 99  1 : Corrected porosity
 RMA     .OHMM       99 995 99  1 : Calculated borehole resistivity for ABC processing
 RWAZC   .           94 935  7  1 : Apparent formation water resistivity (corrected)
 SP      .MV          1  10  1  1 : Spontaneous Potential
 TEN     .LBF        99 635 99  1 : Differential tension
 TXTEMP  .DEGF       99 995 99  1 : Temperature near transmitter coil
 ZCOR    .G/C3       45 356 99  1 : Density correction
 ZDEN    .G/C3       45 350  1  1 : Formation bulk density
 ZDNC    .G/C3       94 995 99  1 : Borehole size/mud weight corrected density
~Parameter Information Block
#MNEM.UNIT             Parameter Value                  Parameter Description
#----.----   ----------------------------------------   -------------------------------
 HIDE.       HIGH DEFINITION INDUCTION LOG^S          : Header Identifer
 HID1.       COMPENSATED Z-DENSILOG^S                 : Header Identifer
 HID2.       COMPENSATED NEUTRON LOG                  : Header Identifer
 HID3.       GAMMA RAY LOG                            : Header Identifer
 CMT4.       HAZELETT 1                               : Comment 4  
 FL1 .       414' FSEL & 567' F SOUTH RIVER OF THE    : Field Location 1
 FL2 .       BETTNE, C A SURVEY      A-11             : Field Location 2
 OS1 .       1" HDIL/GR                               : Other Services Line 1
 OS2 .       TVD                                      : Other Services Line 2
 PDAT.       GL                                       : Permanent Datum
 EPD .FT     72                                       : Elevation Of Perm. Datum
 LMF .       KB                                       : Log Measured From
 APD .FT     12                                       : Above Permanent Datum
 DMF .       KB                                       : Drilling Measured From
 EKB .FT     84                                       : Elevation Of Kelly Bushing
 EDF .FT     83                                       : Elevation Of Derrick Floor
 EGL .FT     72                                       : Elevation Of Ground Level
 RUN .       1                                        : Run Number
 TRIP.       1                                        : Trip Number
 SON .       90010                                    : Service Order Number
 TDD .FT     3830                                     : Total Depth - Driller
 TDL .FT     3832                                     : Total Depth - Logger
 BLI .FT     3830                                     : Bottom Log Interval
 TLI .FT     1214                                     : Top Log Interval
 CSIZ.IN     8.625                                    : Casing Size
 CBDR.FT     1212                                     : Casing Bottom - Driller
 CBLO.FT     1214                                     : Casing Bottom - Logger
 BS  .IN     7.875                                    : Bit Size
 DFT .       WBM                                      : Drilling Fluid Type
 DFD .LB/G   9.6                                      : Drilling Fluid Density
 DFV .S      43                                       : Drilling Fluid Viscosity
 DFPH.       10                                       : Drilling Fluid Ph
 DFL .C3     8                                        : Drilling Fluid Loss
 MSS .       FLOWLINE                                 : Mud Sample Source
 RMS .OHMM   1.12                                     : Resistivity Of Mud Sample
 MST .DEGF   75                                       : Mud Sample Temperature
 RMFS.OHMM   0.84                                     : Resistivity Of Mud Filtrate Sample
 MFST.DEGF   75                                       : Mud Filtrate Sample Temperature
 RMCS.OHMM   1.40                                     : Resistivity Of Mud Cake Sample
 MCST.DEGF   75                                       : Mud Cake Sample Temperature
 MFSS.       C                                        : Mud Filtrate Sample Source
 MCSS.       C                                        : Mud Cake Sample Source
 RMB .OHMM   0.71                                     : Mud Resistivity At Bht
 BHT .DEGF   122                                      : Bottom Hole Temperature
 TSC .       8 HRS                                    : Time Since Circulation
 MRT .DEGF   122                                      : Maximum Recorded Temperature
 LUN .       HL-6681                                  : Logging Unit Number
 LUL .       VICTORIA,TX                              : Logging Unit Location
 ENGI.       O. FADAYOMI                              : Engineer's Name
 WITN.       EPPS / PELLEGRINI                        : Witness' Name
 TSTR.       HDIL/ZDL/CN/GR                           : Title Service Mnemonic
 TSTG.       NA                                       : Title Service Mnemonic
 STUS.       FINAL                                    : Status
 LCNM.       BAKER ATLAS                              : Logging Company Name
 LCC .       150                                      : Logging Company Code
 OPMD.       OH.WIRE                                  : Operation Mode
 PANA.       O. FADAYOMI                              : Processing Analyst
 PCON.       BAKER ATLAS                              : Processing Contractor
~Other information
 BVOL = TOTAL BOREHOLE VOLUME                                                    
 CVOL = TOTAL CEMENT VOLUME, BASED ON 5.5" CSG                                   
 DENSITY MATRIX = SANDSTONE, 2.65 G/CC                                           
 NEUTRON MATRIX = SANDSTONE                                                      
 REPEAT SECTION LOGGED BELOW SURFACE CASING DUE TO TIGHT SPOTS AT TD.            
 HL-6681 CREW:  L. BRINKMAN, J. GUILLEN                                          
#  Curve Data
~A DEPT     BVOL     CAL      CNCF     CVOL     GR       M1R1     M1R2     M1R3     M1R6     M1R9     M2CC9    M2R2     M2R9     PE       PORZC    RMA      RWAZC    SP       TEN      TXTEMP   ZCOR     ZDEN     ZDNC    
# ...
 1732.000  822.971    8.275   43.711  478.015   62.813    2.360    2.531    2.682    2.803    2.854  348.266    2.546    2.871    2.463   34.299    0.795    0.461  -31.837    9.431  117.318    0.042    2.089    2.084
 1732.500  822.784    8.295   42.956  477.910   60.119    2.393    2.568    2.724    2.852    2.902  347.479    2.546    2.878    2.440   33.538    0.795    0.447  -31.790   -0.375  117.318    0.040    2.102    2.097
 1733.000  822.595    8.354   42.272  477.805   59.523    2.391    2.570    2.730    2.861    2.908  348.326    2.537    2.871    2.413   32.647    0.795    0.423  -31.720  -11.834  117.318    0.045    2.117    2.111
 1733.500  822.404    8.428   42.099  477.696   58.603    2.350    2.530    2.690    2.821    2.863  350.331    2.522    2.854    2.456   32.442    0.795    0.411  -31.709  -16.004  117.318    0.049    2.120    2.115
 1734.000  822.210    8.472   41.897  477.584   56.344    2.331    2.515    2.676    2.805    2.843  351.536    2.516    2.845    2.554   33.207    0.795    0.429  -31.715  -14.250  117.318    0.047    2.108    2.102
 1734.500  822.014    8.480   41.157  477.471   56.187    2.328    2.514    2.677    2.805    2.837  350.826    2.526    2.850    2.665   34.117    0.795    0.453  -31.718  -10.009  117.318    0.046    2.093    2.087
 1735.000  821.818    8.476   40.406  477.357   59.610    2.335    2.521    2.685    2.811    2.838  348.767    2.548    2.867    2.654   34.300    0.795    0.459  -31.703   -7.633  117.332    0.049    2.089    2.084
 1735.500  821.622    8.471   40.255  477.244   62.869    2.370    2.556    2.721    2.848    2.868  345.751    2.577    2.892    2.503   33.873    0.795    0.451  -31.716   -9.569  117.332    0.052    2.097    2.091
 1736.000  821.427    8.467   40.711  477.131   63.765    2.408    2.590    2.754    2.882    2.897  340.712    2.624    2.935    2.449   33.480    0.795    0.444  -31.799  -11.260  117.332    0.052    2.103    2.098
 1736.500  821.231    8.465   40.795  477.018   63.613    2.489    2.669    2.833    2.965    2.974  331.896    2.703    3.013    2.618   33.234    0.795    0.449  -31.917   -8.436  117.332    0.054    2.107    2.102
 1737.000  821.036    8.463   39.766  476.905   62.969    2.574    2.749    2.910    3.048    3.052  317.699    2.834    3.148    2.837   32.616    0.794    0.443  -32.056   -6.495  117.332    0.060    2.117    2.112
 1737.500  820.840    8.454   38.844  476.792   61.282    2.728    2.901    3.063    3.211    3.208  297.466    3.037    3.362    2.901   31.426    0.794    0.430  -32.185  -10.213  117.332    0.067    2.137    2.131
 1738.000  820.646    8.433   38.865  476.680   59.805    3.069    3.262    3.439    3.608    3.599  275.073    3.295    3.635    2.902   30.084    0.794    0.439  -32.293  -17.559  117.347    0.072    2.160    2.154
 1738.500  820.452    8.410   39.036  476.569   58.604    3.346    3.549    3.734    3.920    3.903  257.432    3.533    3.885    3.047   29.224    0.794    0.447  -32.384  -23.998  117.347    0.071    2.174    2.168
 1739.000  820.259    8.400   38.197  476.458   56.852    3.571    3.776    3.965    4.162    4.136  247.666    3.687    4.038    3.388   29.408    0.794    0.480  -32.459  -30.570  117.347    0.064    2.171    2.165
 1739.500  820.067    8.398   37.132  476.348   56.076    3.527    3.701    3.871    4.061    4.031  242.666    3.783    4.121    3.637   29.606    0.794    0.475  -32.459  -37.051  117.347    0.061    2.167    2.162
 1740.000  819.875    8.397   36.330  476.239   57.322    3.449    3.582    3.726    3.904    3.872  232.758    3.969    4.296    3.530   27.897    0.794    0.401  -32.367  -38.812  117.347    0.066    2.196    2.190
 1740.500  819.682    8.397   35.216  476.129   58.580    4.021    4.155    4.306    4.503    4.467  212.450    4.377    4.707    3.229   24.403    0.794    0.347  -32.197  -33.572  117.347    0.074    2.254    2.247
 1741.000  819.490    8.398   33.863  476.019   59.021    5.022    5.171    5.334    5.565    5.527  190.502    4.911    5.249    3.088   21.865    0.794    0.339  -32.066  -22.909  117.347    0.070    2.296    2.289
 1741.500  819.298    8.400   33.189  475.909   59.596    5.333    5.495    5.652    5.880    5.854  178.223    5.267    5.611    3.235   21.790    0.794    0.357  -32.035  -16.100  117.347    0.053    2.297    2.290
 1742.000  819.105    8.398   33.540  475.799   60.097    5.071    5.271    5.423    5.628    5.622  176.715    5.306    5.659    3.478   22.748    0.794    0.376  -32.079  -19.914  117.347    0.043    2.281    2.275
 1742.500  818.913    8.395   34.379  475.689   60.609    5.049    5.331    5.506    5.699    5.715  182.785    5.103    5.471    3.666   23.503    0.794    0.410  -32.143  -25.642  117.362    0.046    2.269    2.262
 1743.000  818.721    8.392   35.262  475.580   61.719    4.690    5.047    5.245    5.415    5.454  196.585    4.707    5.087    3.663   23.689    0.794    0.398  -32.182  -20.521  117.362    0.054    2.266    2.259
 1743.500  818.529    8.402   36.800  475.470   62.989    3.940    4.311    4.512    4.649    4.702  218.826    4.190    4.570    3.507   23.989    0.794    0.352  -32.172   -8.631  117.362    0.057    2.261    2.254
 1744.000  818.336    8.437   39.565  475.360   63.247    3.458    3.826    4.028    4.143    4.208  247.374    3.676    4.042    3.309   25.585    0.794    0.362  -32.164    1.201  117.362    0.049    2.234    2.228
 1744.500  818.141    8.488   42.823  475.248   62.943    3.037    3.376    3.568    3.665    3.736  279.439    3.234    3.579    3.126   28.506    0.794    0.406  -32.164    5.872  117.362    0.039    2.186    2.180
 1745.000  817.944    8.535   45.476  475.133   63.666    2.605    2.892    3.063    3.144    3.214  311.019    2.892    3.215    2.991   31.978    0.794    0.447  -32.184    3.628  117.362    0.033    2.128    2.122
 1745.500  817.745    8.540   46.891  475.017   66.546    2.370    2.616    2.772    2.846    2.917  336.575    2.665    2.971    2.931   35.098    0.794    0.495  -32.213   -5.064  117.362    0.029    2.076    2.071
 1746.000  817.547    8.493   45.907  474.901   70.289    2.299    2.519    2.667    2.741    2.815  353.140    2.534    2.832    2.889   36.422    0.794    0.518  -32.242  -16.268  117.362    0.032    2.054    2.049
 1746.500  817.351    8.454   43.056  474.787   70.711    2.302    2.506    2.652    2.728    2.807  363.298    2.458    2.753    2.782   35.621    0.794    0.492  -32.250  -25.743  117.362    0.042    2.068    2.062
 1747.000  817.156    8.474   41.609  474.675   67.889    2.266    2.455    2.596    2.676    2.756  372.952    2.388    2.681    2.689   34.726    0.794    0.457  -32.252  -31.764  117.376    0.047    2.082    2.077
 1747.500  816.959    8.549   43.160  474.560   67.102    2.166    2.339    2.474    2.556    2.634  386.115    2.300    2.590    2.774   35.697    0.793    0.464  -32.284  -33.095  117.376    0.038    2.066    2.061
 1748.000  816.759    8.674   45.497  474.442   70.045    2.058    2.220    2.349    2.431    2.506  401.756    2.204    2.489    2.910   37.742    0.793    0.498  -32.334  -30.333  117.376    0.028    2.032    2.027
 1748.500  816.552    8.829   45.430  474.318   70.513    1.968    2.120    2.245    2.328    2.400  414.854    2.130    2.410    2.896   40.098    0.793    0.543  -32.323  -28.701  117.376    0.021    1.993    1.988
 1749.000  816.337    8.940   44.704  474.186   66.796    1.939    2.089    2.213    2.297    2.368  421.743    2.092    2.371    2.829   42.400    0.793    0.604  -32.235  -31.875  117.376    0.019    1.955    1.950
 1749.500  816.119    8.955   46.099  474.050   63.867    1.959    2.111    2.236    2.324    2.395  424.221    2.078    2.357    2.853   43.412    0.793    0.642  -31.998  -35.825  117.376    0.025    1.938    1.934
 1750.000  815.901    8.914   47.859  473.914   63.552    1.927    2.071    2.192    2.281    2.350  426.306    2.068    2.346    2.867   42.494    0.793    0.602  -31.572  -36.056  117.376    0.037    1.953    1.949
