~Version Information
 VERS.                2.00:   CWLS log ASCII Standard -VERSION 2.00
 WRAP.                  NO:   One line per frame      
~Well Information Block
#MNEM.UNIT                  Well Data                    Data Description
#----.----   -----------------------------------------   -------------------------------
 STRT.FT                                      1214.000 : Starting Depth
 STOP.FT                                      3832.000 : Ending Depth
 STEP.FT                                         0.500 : Level Spacing
 NULL.                                       -999.2500 : Absent Value
 COMP.        LAVACA RIVER OPERATING CO., LLC          : Company
 WELL.        MYSKA, ROBERT #4 ST                      : Well
 FLD .        BOLING                                   : Field
 LOC .        593' FNEL & 414' FEL OF LEASE            : Location
 CNTY.        FORT BEND                                : County
 STAT.        TEXAS                                    : State
 CTRY.        USA                                      : Country
 SRVC.        Baker Hughes                             : Service Company
 DATE.        10-SEP-2014                              : Log Date
 API .        42-157-32993                             : API Number
 UWI .        42-157-32993                             : Unique Well ID
~Curve Information Block
#MNEM    .UNIT        API Codes     Curve Description
#--------.--------   ------------   -------------------------------
 DEPT    .FT         99 995 99  1 : Depth
 BVOL    .F3         70 995 99  1 : Borehole volume
 CAL     .IN         70 280 99  1 : Caliper
 CNCF    .PU         42 995 99  1 : Field normalized compensated neutron porosity
 CVOL    .F3         70 995 99  1 : Cement volume
 GR      .GAPI       30 310  1  1 : Gamma ray
 M1R1    .OHMM        8 120 10  1 : Vertical 1-foot resolution matched resistivity, 10-inch DOI
 M1R2    .OHMM        8 120 20  1 : Vertical 1-foot resolution matched resistivity, 20-inch DOI
 M1R3    .OHMM        8 120 30  1 : Vertical 1-foot resolution matched resistivity, 30-inch DOI
 M1R6    .OHMM        8 120 60  1 : Vertical 1-foot resolution matched resistivity, 60-inch DOI
 M1R9    .OHMM        8 120 90  1 : Vertical 1-foot resolution matched resistivity, 90-inch DOI
 M2CC9   .MMHO        8 110 90  1 : HDIL 2-foot resolution compressed conductivity, 90-inch DOI
 M2R2    .OHMM        8 120 20  1 : Vertical 2-foot resolution matched resistivity, 20-inch DOI
 M2R9    .OHMM        8 120 90  1 : Vertical 2-foot resolution matched resistivity, 90-inch DOI
 PE      .B/E        45 358  1  1 : Photo electric cross-section
 PORZC   .PU         99 995 99  1 : Corrected porosity
 RMA     .OHMM       99 995 99  1 : Calculated borehole resistivity for ABC processing
 RWAZC   .           94 935  7  1 : Apparent formation water resistivity (corrected)
 SP      .MV          1  10  1  1 : Spontaneous Potential
 TEN     .LBF        99 635 99  1 : Differential tension
 TXTEMP  .DEGF       99 995 99  1 : Temperature near transmitter coil
 ZCOR    .G/C3       45 356 99  1 : Density correction
 ZDEN    .G/C3       45 350  1  1 : Formation bulk density
 ZDNC    .G/C3       94 995 99  1 : Borehole size/mud weight corrected density
~Parameter Information Block
#MNEM.UNIT             Parameter Value                  Parameter Description
#----.----   ----------------------------------------   -------------------------------
 HIDE.       HIGH DEFINITION INDUCTION LOG^S          : Header Identifer
 HID1.       COMPENSATED Z-DENSILOG^S                 : Header Identifer
 HID2.       COMPENSATED NEUTRON LOG                  : Header Identifer
 HID3.       GAMMA RAY LOG                            : Header Identifer
 CMT4.       HAZELETT 1                               : Comment 4  
 FL1 .       414' FSEL & 567' F SOUTH RIVER OF THE    : Field Location 1
 FL2 .       BETTNE, C A SURVEY      A-11             : Field Location 2
 OS1 .       1" HDIL/GR                               : Other Services Line 1
 OS2 .       TVD                                      : Other Services Line 2
 PDAT.       GL                                       : Permanent Datum
 EPD .FT     72                                       : Elevation Of Perm. Datum
 LMF .       KB                                       : Log Measured From
 APD .FT     12                                       : Above Permanent Datum
 DMF .       KB                                       : Drilling Measured From
 EKB .FT     84                                       : Elevation Of Kelly Bushing
 EDF .FT     83                                       : Elevation Of Derrick Floor
 EGL .FT     72                                       : Elevation Of Ground Level
 RUN .       1                                        : Run Number
 TRIP.       1                                        : Trip Number
 SON .       90010                                    : Service Order Number
 TDD .FT     3830                                     : Total Depth - Driller
 TDL .FT     3832                                     : Total Depth - Logger
 BLI .FT     3830                                     : Bottom Log Interval
 TLI .FT     1214                                     : Top Log Interval
 CSIZ.IN     8.625                                    : Casing Size
 CBDR.FT     1212                                     : Casing Bottom - Driller
 CBLO.FT     1214                                     : Casing Bottom - Logger
 BS  .IN     7.875                                    : Bit Size
 DFT .       WBM                                      : Drilling Fluid Type
 DFD .LB/G   9.6                                      : Drilling Fluid Density
 DFV .S      43                                       : Drilling Fluid Viscosity
 DFPH.       10                                       : Drilling Fluid Ph
 DFL .C3     8                                        : Drilling Fluid Loss
 MSS .       FLOWLINE                                 : Mud Sample Source
 RMS .OHMM   1.12                                     : Resistivity Of Mud Sample
 MST .DEGF   75                                       : Mud Sample Temperature
 RMFS.OHMM   0.84                                     : Resistivity Of Mud Filtrate Sample
 MFST.DEGF   75                                       : Mud Filtrate Sample Temperature
 RMCS.OHMM   1.40                                     : Resistivity Of Mud Cake Sample
 MCST.DEGF   75                                       : Mud Cake Sample Temperature
 MFSS.       C                                        : Mud Filtrate Sample Source
 MCSS.       C                                        : Mud Cake Sample Source
 RMB .OHMM   0.71                                     : Mud Resistivity At Bht
 BHT .DEGF   122                                      : Bottom Hole Temperature
 TSC .       8 HRS                                    : Time Since Circulation
 MRT .DEGF   122                                      : Maximum Recorded Temperature
 LUN .       HL-6681                                  : Logging Unit Number
 LUL .       VICTORIA,TX                              : Logging Unit Location
 ENGI.       O. FADAYOMI                              : Engineer's Name
 WITN.       EPPS / PELLEGRINI                        : Witness' Name
 TSTR.       HDIL/ZDL/CN/GR                           : Title Service Mnemonic
 TSTG.       NA                                       : Title Service Mnemonic
 STUS.       FINAL                                    : Status
 LCNM.       BAKER ATLAS                              : Logging Company Name
 LCC .       150                                      : Logging Company Code
 OPMD.       OH.WIRE                                  : Operation Mode
 PANA.       O. FADAYOMI                              : Processing Analyst
 PCON.       BAKER ATLAS                              : Processing Contractor
~Other information
 BVOL = TOTAL BOREHOLE VOLUME                                                    
 CVOL = TOTAL CEMENT VOLUME, BASED ON 5.5" CSG                                   
 DENSITY MATRIX = SANDSTONE, 2.65 G/CC                                           
 NEUTRON MATRIX = SANDSTONE                                                      
 REPEAT SECTION LOGGED BELOW SURFACE CASING DUE TO TIGHT SPOTS AT TD.            
 HL-6681 CREW:  L. BRINKMAN, J. GUILLEN                                          
#  Curve Data
~A DEPT     BVOL     CAL      CNCF     CVOL     GR       M1R1     M1R2     M1R3     M1R6     M1R9     M2CC9    M2R2     M2R9     PE       PORZC    RMA      RWAZC    SP       TEN      TXTEMP   ZCOR     ZDEN     ZDNC    
# ...
 1380.500  972.315   11.008   47.052  569.365   60.038    3.331    3.989    4.519    4.982    5.124  189.880    4.100    5.266    2.812   58.722    0.829    2.631  -45.150  -17.908  115.211   -0.004    1.684    1.681
 1381.000  971.984   11.039   44.117  569.117   59.075    3.526    4.234    4.811    5.317    5.468  178.661    4.334    5.597    2.895   57.479    0.829    2.681  -45.219  -21.130  115.211    0.003    1.705    1.702
 1381.500  971.651   11.049   42.782  568.867   58.042    3.808    4.584    5.217    5.779    5.942  168.634    4.575    5.930    2.910   54.781    0.829    2.628  -45.305  -22.585  115.211    0.025    1.750    1.746
 1382.000  971.318   11.050   42.781  568.616   57.273    4.023    4.849    5.525    6.132    6.307  162.258    4.739    6.163    2.872   52.394    0.829    2.534  -45.366  -21.817  115.211    0.054    1.790    1.786
 1382.500  970.985   11.056   43.572  568.366   57.857    3.998    4.808    5.487    6.099    6.276  158.978    4.818    6.290    2.870   51.699    0.829    2.451  -45.490  -23.810  115.225    0.067    1.801    1.797
 1383.000  970.651   11.092   44.855  568.115   58.994    3.977    4.785    5.473    6.092    6.275  155.978    4.889    6.411    2.888   51.587    0.829    2.439  -45.924  -28.758  115.225    0.063    1.803    1.799
 1383.500  970.315   11.157   45.570  567.861   59.335    4.002    4.830    5.541    6.173    6.366  151.748    5.000    6.590    2.916   50.611    0.829    2.375  -46.560  -36.453  115.225    0.055    1.820    1.815
 1384.000  969.975   11.211   45.616  567.603   58.655    4.366    5.340    6.146    6.847    7.074  148.652    5.078    6.727    2.978   49.412    0.829    2.506  -47.135  -46.090  115.240    0.051    1.840    1.835
 1384.500  969.631   11.252   45.165  567.342   58.057    4.262    5.239    6.049    6.737    6.972  150.486    4.993    6.645    3.048   49.110    0.829    2.438  -47.417  -51.968  115.240    0.053    1.845    1.840
 1385.000  969.285   11.319   45.164  567.078   58.237    3.939    4.842    5.605    6.240    6.468  157.311    4.759    6.357    3.121   49.082    0.828    2.259  -47.298  -50.169  115.240    0.063    1.845    1.840
 1385.500  968.934   11.406   45.819  566.810   59.046    3.707    4.554    5.282    5.876    6.099  166.254    4.492    6.015    3.201   48.844    0.828    2.108  -46.776  -50.170  115.240    0.072    1.849    1.844
 1386.000  968.578   11.465   47.093  566.537   59.837    3.474    4.251    4.934    5.489    5.703  174.592    4.270    5.728    3.207   48.887    0.828    1.975  -46.248  -48.717  115.240    0.068    1.849    1.843
 1386.500  968.220   11.486   48.993  566.260   60.663    3.349    4.082    4.738    5.278    5.485  179.992    4.134    5.556    3.118   49.584    0.828    1.958  -45.927  -34.605  115.240    0.053    1.837    1.832
 1387.000  967.859   11.517   50.652  565.983   61.842    3.325    4.042    4.693    5.244    5.450  181.697    4.082    5.504    3.016   51.409    0.828    2.102  -45.909  -22.177  115.269    0.042    1.807    1.802
 1387.500  967.497   11.578   49.997  565.703   63.273    3.291    3.980    4.630    5.202    5.403  178.305    4.131    5.608    2.971   53.746    0.828    2.294  -46.072  -26.606  115.269    0.039    1.768    1.763
 1388.000  967.130   11.637   47.542  565.418   62.476    3.397    4.103    4.794    5.432    5.637  166.253    4.378    6.015    3.051   55.390    0.828    2.553  -46.211  -36.235  115.269    0.038    1.740    1.736
 1388.500  966.760   11.667   45.164  565.131   57.770    3.957    4.877    5.743    6.581    6.823  146.331    4.885    6.834    3.208   56.335    0.828    3.204  -46.068  -41.073  115.254    0.034    1.724    1.720
 1389.000  966.389   11.678   43.081  564.842   53.372    4.348    5.432    6.470    7.518    7.788  125.182    5.572    7.988    3.324   56.241    0.828    3.645  -45.616  -36.745  115.254    0.031    1.726    1.722
 1389.500  966.017   11.694   42.207  564.553   53.282    4.693    5.955    7.200    8.499    8.798  106.699    6.344    9.372    3.316   54.209    0.828    3.804  -45.091  -11.445  115.254    0.033    1.760    1.756
 1390.000  965.643   11.731   43.154  564.262   53.766    5.465    7.178    8.827   10.587   10.956   91.098    7.192   10.977    3.231   51.649    0.828    4.269  -44.773   19.499  115.269    0.033    1.803    1.798
 1390.500  965.267   11.790   45.070  563.968   52.564    6.404    8.808   11.017   13.411   13.875   80.649    7.869   12.399    3.163   51.292    0.828    5.327  -44.626   26.808  115.269    0.022    1.809    1.804
 1391.000  964.887   11.848   45.196  563.670   52.918    6.053    8.377   10.638   13.118   13.567   77.345    7.982   12.929    3.154   52.925    0.828    5.571  -44.544   14.077  115.269    0.014    1.782    1.777
 1391.500  964.504   11.888   42.951  563.369   55.105    5.328    7.282    9.348   11.638   12.030   78.034    7.759   12.815    3.198   54.400    0.828    5.241  -44.394    3.989  115.269    0.016    1.757    1.752
 1392.000  964.118   11.911   40.894  563.066   55.489    5.352    7.290    9.407   11.771   12.153   77.188    7.772   12.955    3.290   54.926    0.828    5.405  -44.059   -2.094  115.283    0.019    1.748    1.744
 1392.500  963.731   11.932   40.602  562.761   53.443    5.565    7.441    9.598   12.029   12.399   72.311    8.302   13.829    3.368   54.488    0.828    5.421  -43.595  -10.591  115.283    0.020    1.755    1.751
 1393.000  963.342   11.964   40.481  562.455   50.357    6.327    8.343   10.702   13.387   13.762   64.079    9.465   15.606    3.443   53.451    0.828    5.773  -43.037  -18.071  115.283    0.022    1.773    1.768
 1393.500  962.951   12.000   39.268  562.147   47.696    9.880   14.248   18.107   22.514   23.069   57.072   10.807   17.522    3.622   52.799    0.828    9.425  -42.330  -19.792  115.269    0.024    1.784    1.779
 1394.000  962.558   12.027   38.036  561.836   46.695   10.270   14.273   17.928   22.202   22.651   56.635   11.112   17.657    3.878   53.285    0.828    9.438  -41.572  -16.367  115.269    0.021    1.776    1.771
 1394.500  962.163   12.062   37.445  561.524   45.937    6.712    8.645   10.731   13.286   13.487   59.428   10.797   16.827    4.004   54.547    0.828    5.910  -40.924  -12.439  115.269    0.017    1.755    1.750
 1395.000  961.765   12.142   35.494  561.208   42.376    6.559    8.083    9.929   12.271   12.394   54.688   11.947   18.285    3.920   55.255    0.827    5.584  -40.410  -13.081  115.298    0.019    1.743    1.738
 1395.500  961.361   12.257   31.877  560.887   37.606   11.799   14.707   17.950   22.100   22.245   39.185   16.880   25.520    3.765   54.758    0.827    9.829  -39.975  -16.308  115.298    0.027    1.751    1.746
 1396.000  960.950   12.353   28.963  560.558   35.349   37.175   62.290   81.230   96.642   97.311   23.848   28.040   41.932    3.734   54.970    0.827   43.354  -39.482  -17.649  115.298    0.032    1.748    1.743
 1396.500  960.533   12.412   27.818  560.223   34.961   70.891  130.968  162.009  184.096  186.186   19.356   34.280   51.662    3.828   57.779    0.827   92.334  -38.880  -17.325  115.298    0.027    1.701    1.697
 1397.000  960.112   12.460   28.564  559.885   35.196   29.786   44.932   57.136   69.041   69.455   25.023   25.524   39.963    3.838   60.706    0.827   38.305  -38.251  -15.134  115.298    0.025    1.652    1.648
 1397.500  959.688   12.497   30.916  559.543   36.488    8.570   13.253   17.339   21.506   21.635   34.974   17.566   28.592    3.755   60.821    0.827   11.981  -37.675   -5.343  115.298    0.028    1.650    1.646
 1398.000  959.261   12.514   34.937  559.199   37.710    7.592   11.792   15.788   19.581   19.763   39.222   15.248   25.496    3.727   59.165    0.827   10.314  -37.158    3.821  115.312    0.023    1.678    1.674
 1398.500  958.834   12.519   38.653  558.855   36.821   12.641   22.146   30.015   36.836   37.374   39.238   15.034   25.485    3.842   59.747    0.827   19.919  -36.636   -0.506  115.312    0.010    1.668    1.664
