~Version Information
 VERS.                2.00:   CWLS log ASCII Standard -VERSION 2.00
 WRAP.                  NO:   One line per frame      
~Well Information Block
#MNEM.UNIT                  Well Data                    Data Description
#----.----   -----------------------------------------   -------------------------------
 STRT.FT                                      1214.000 : Starting Depth
 STOP.FT                                      3832.000 : Ending Depth
 STEP.FT                                         0.500 : Level Spacing
 NULL.                                       -999.2500 : Absent Value
 COMP.        LAVACA RIVER OPERATING CO., LLC          : Company
 WELL.        MYSKA, ROBERT #4 ST                      : Well
 FLD .        BOLING                                   : Field
 LOC .        593' FNEL & 414' FEL OF LEASE            : Location
 CNTY.        FORT BEND                                : County
 STAT.        TEXAS                                    : State
 CTRY.        USA                                      : Country
 SRVC.        Baker Hughes                             : Service Company
 DATE.        10-SEP-2014                              : Log Date
 API .        42-157-32993                             : API Number
 UWI .        42-157-32993                             : Unique Well ID
~Curve Information Block
#MNEM    .UNIT        API Codes     Curve Description
#--------.--------   ------------   -------------------------------
 DEPT    .FT         99 995 99  1 : Depth
 BVOL    .F3         70 995 99  1 : Borehole volume
 CAL     .IN         70 280 99  1 : Caliper
 CNCF    .PU         42 995 99  1 : Field normalized compensated neutron porosity
 CVOL    .F3         70 995 99  1 : Cement volume
 GR      .GAPI       30 310  1  1 : Gamma ray
 M1R1    .OHMM        8 120 10  1 : Vertical 1-foot resolution matched resistivity, 10-inch DOI
 M1R2    .OHMM        8 120 20  1 : Vertical 1-foot resolution matched resistivity, 20-inch DOI
 M1R3    .OHMM        8 120 30  1 : Vertical 1-foot resolution matched resistivity, 30-inch DOI
 M1R6    .OHMM        8 120 60  1 : Vertical 1-foot resolution matched resistivity, 60-inch DOI
 M1R9    .OHMM        8 120 90  1 : Vertical 1-foot resolution matched resistivity, 90-inch DOI
 M2CC9   .MMHO        8 110 90  1 : HDIL 2-foot resolution compressed conductivity, 90-inch DOI
 M2R2    .OHMM        8 120 20  1 : Vertical 2-foot resolution matched resistivity, 20-inch DOI
 M2R9    .OHMM        8 120 90  1 : Vertical 2-foot resolution matched resistivity, 90-inch DOI
 PE      .B/E        45 358  1  1 : Photo electric cross-section
 PORZC   .PU         99 995 99  1 : Corrected porosity
 RMA     .OHMM       99 995 99  1 : Calculated borehole resistivity for ABC processing
 RWAZC   .           94 935  7  1 : Apparent formation water resistivity (corrected)
 SP      .MV          1  10  1  1 : Spontaneous Potential
 TEN     .LBF        99 635 99  1 : Differential tension
 TXTEMP  .DEGF       99 995 99  1 : Temperature near transmitter coil
 ZCOR    .G/C3       45 356 99  1 : Density correction
 ZDEN    .G/C3       45 350  1  1 : Formation bulk density
 ZDNC    .G/C3       94 995 99  1 : Borehole size/mud weight corrected density
~Parameter Information Block
#MNEM.UNIT             Parameter Value                  Parameter Description
#----.----   ----------------------------------------   -------------------------------
 HIDE.       HIGH DEFINITION INDUCTION LOG^S          : Header Identifer
 HID1.       COMPENSATED Z-DENSILOG^S                 : Header Identifer
 HID2.       COMPENSATED NEUTRON LOG                  : Header Identifer
 HID3.       GAMMA RAY LOG                            : Header Identifer
 CMT4.       HAZELETT 1                               : Comment 4  
 FL1 .       414' FSEL & 567' F SOUTH RIVER OF THE    : Field Location 1
 FL2 .       BETTNE, C A SURVEY      A-11             : Field Location 2
 OS1 .       1" HDIL/GR                               : Other Services Line 1
 OS2 .       TVD                                      : Other Services Line 2
 PDAT.       GL                                       : Permanent Datum
 EPD .FT     72                                       : Elevation Of Perm. Datum
 LMF .       KB                                       : Log Measured From
 APD .FT     12                                       : Above Permanent Datum
 DMF .       KB                                       : Drilling Measured From
 EKB .FT     84                                       : Elevation Of Kelly Bushing
 EDF .FT     83                                       : Elevation Of Derrick Floor
 EGL .FT     72                                       : Elevation Of Ground Level
 RUN .       1                                        : Run Number
 TRIP.       1                                        : Trip Number
 SON .       90010                                    : Service Order Number
 TDD .FT     3830                                     : Total Depth - Driller
 TDL .FT     3832                                     : Total Depth - Logger
 BLI .FT     3830                                     : Bottom Log Interval
 TLI .FT     1214                                     : Top Log Interval
 CSIZ.IN     8.625                                    : Casing Size
 CBDR.FT     1212                                     : Casing Bottom - Driller
 CBLO.FT     1214                                     : Casing Bottom - Logger
 BS  .IN     7.875                                    : Bit Size
 DFT .       WBM                                      : Drilling Fluid Type
 DFD .LB/G   9.6                                      : Drilling Fluid Density
 DFV .S      43                                       : Drilling Fluid Viscosity
 DFPH.       10                                       : Drilling Fluid Ph
 DFL .C3     8                                        : Drilling Fluid Loss
 MSS .       FLOWLINE                                 : Mud Sample Source
 RMS .OHMM   1.12                                     : Resistivity Of Mud Sample
 MST .DEGF   75                                       : Mud Sample Temperature
 RMFS.OHMM   0.84                                     : Resistivity Of Mud Filtrate Sample
 MFST.DEGF   75                                       : Mud Filtrate Sample Temperature
 RMCS.OHMM   1.40                                     : Resistivity Of Mud Cake Sample
 MCST.DEGF   75                                       : Mud Cake Sample Temperature
 MFSS.       C                                        : Mud Filtrate Sample Source
 MCSS.       C                                        : Mud Cake Sample Source
 RMB .OHMM   0.71                                     : Mud Resistivity At Bht
 BHT .DEGF   122                                      : Bottom Hole Temperature
 TSC .       8 HRS                                    : Time Since Circulation
 MRT .DEGF   122                                      : Maximum Recorded Temperature
 LUN .       HL-6681                                  : Logging Unit Number
 LUL .       VICTORIA,TX                              : Logging Unit Location
 ENGI.       O. FADAYOMI                              : Engineer's Name
 WITN.       EPPS / PELLEGRINI                        : Witness' Name
 TSTR.       HDIL/ZDL/CN/GR                           : Title Service Mnemonic
 TSTG.       NA                                       : Title Service Mnemonic
 STUS.       FINAL                                    : Status
 LCNM.       BAKER ATLAS                              : Logging Company Name
 LCC .       150                                      : Logging Company Code
 OPMD.       OH.WIRE                                  : Operation Mode
 PANA.       O. FADAYOMI                              : Processing Analyst
 PCON.       BAKER ATLAS                              : Processing Contractor
~Other information
 BVOL = TOTAL BOREHOLE VOLUME                                                    
 CVOL = TOTAL CEMENT VOLUME, BASED ON 5.5" CSG                                   
 DENSITY MATRIX = SANDSTONE, 2.65 G/CC                                           
 NEUTRON MATRIX = SANDSTONE                                                      
 REPEAT SECTION LOGGED BELOW SURFACE CASING DUE TO TIGHT SPOTS AT TD.            
 HL-6681 CREW:  L. BRINKMAN, J. GUILLEN                                          
#  Curve Data
~A DEPT     BVOL     CAL      CNCF     CVOL     GR       M1R1     M1R2     M1R3     M1R6     M1R9     M2CC9    M2R2     M2R9     PE       PORZC    RMA      RWAZC    SP       TEN      TXTEMP   ZCOR     ZDEN     ZDNC    
 1214.000 1041.579    8.097   53.405  611.159   42.920    0.049    0.219    6.551 1965.510 1974.612    0.506    0.219 1974.611    9.079   40.719    0.846  461.475    3.271    5.781  114.237   -0.281    1.982    1.978
 1214.500 1041.399    8.133   52.003  611.062   42.547    0.054    0.311 1871.848 1954.349 1965.663    0.509    0.308 1965.663    9.232   38.905    0.846  416.523    3.877    8.232  114.237   -0.274    2.012    2.008
 1215.000 1041.219    8.168   49.898  610.964   42.886    0.069    0.668 1905.999 1939.568 1954.502    0.512    0.618 1954.502    9.228   36.160    0.846  353.867    4.637    7.139  114.237   -0.260    2.058    2.053
 1215.500 1041.036    8.223   48.187  610.864   45.316    0.115    7.144 1901.468 1921.538 1940.860    0.515    2.304 1940.860    9.267   34.804    0.846  323.677    4.881    5.179  114.237   -0.227    2.081    2.076
 1216.000 1040.851    8.325   47.385  610.761   50.822    0.268    8.755 1500.584 1909.527 1931.755    0.518    4.074 1931.755    8.724   33.919    0.846  304.793    4.070    5.826  114.252   -0.159    2.096    2.090
 1216.500 1040.660    8.453   47.150  610.653   57.914    0.423    1.259   31.234 1888.080 1936.633    0.516    2.173 1936.637    6.293   32.945    0.846  287.021    1.895    5.905  114.252   -0.075    2.112    2.106
 1217.000 1040.464    8.572   46.854  610.539   63.726    0.984    1.177    5.237  714.210 1939.338    0.515    1.256 1940.426    3.757   32.779    0.846  284.303   -1.263    4.521  114.252   -0.013    2.115    2.109
 1217.500 1040.262    8.677   45.606  610.420   65.911    1.027    0.505    1.322   64.794 1396.954    0.741    0.492 1349.281    2.583   32.572    0.846  202.027   -4.223    4.196  114.252    0.025    2.118    2.113
 1218.000 1040.056    8.758   43.315  610.296   63.894    1.489    0.477    0.856    3.306    7.991  127.093    0.476    7.868    2.363   31.687    0.846    1.089   -6.318    5.694  114.266    0.047    2.133    2.127
 1218.500 1039.846    8.796   41.671  610.169   58.993    4.847    0.689    1.241    5.481    6.923  171.018    0.666    5.847    2.614   31.149    0.846    0.909   -7.896    8.339  114.266    0.050    2.142    2.136
 1219.000 1039.635    8.803   41.482  610.040   54.048   10.180    0.921    1.606    6.366    7.288  147.273    0.905    6.790    3.044   31.113    0.846    0.955   -9.227   10.067  114.266    0.043    2.143    2.137
 1219.500 1039.424    8.809   41.771  609.911   51.717   14.123    1.296    2.211    7.498    6.548  150.350    1.303    6.651    3.475   30.948    0.845    0.848  -10.345    9.767  114.266    0.030    2.145    2.139
 1220.000 1039.212    8.853   41.802  609.782   53.233    6.821    1.536    2.474    6.421    5.529  169.945    1.574    5.884    3.993   30.475    0.845    0.693  -11.329    9.923  114.266    0.014    2.153    2.147
 1220.500 1038.997    8.939   41.846  609.650   56.782    5.215    1.795    2.807    6.204    5.806  157.046    1.869    6.368    4.890   30.315    0.845    0.720  -12.199   12.515  114.266    0.001    2.156    2.150
 1221.000 1038.778    9.018   41.452  609.513   58.065    7.303    2.610    4.453   10.237    9.732  134.865    2.297    7.415    5.780   30.634    0.845    1.234  -12.954   16.389  114.281   -0.002    2.151    2.145
 1221.500 1038.556    9.052   40.720  609.373   57.636    4.991    2.723    4.051    8.096    7.979  124.915    2.728    8.005    5.878   31.164    0.845    1.049  -13.704   19.083  114.281    0.003    2.142    2.136
 1222.000 1038.332    9.048   40.441  609.232   59.825    4.191    3.040    4.102    7.604    7.797  122.163    3.157    8.186    5.694   32.116    0.845    1.094  -14.494   21.560  114.281    0.006    2.126    2.120
 1222.500 1038.109    9.012   40.497  609.092   62.473    4.320    4.002    4.840    8.828    9.519  109.182    3.853    9.159    6.027   33.883    0.845    1.499  -15.307   22.021  114.295   -0.004    2.097    2.091
 1223.000 1037.888    8.967   40.511  608.954   58.998    4.064    4.615    5.217    9.359   10.530   88.273    4.965   11.328    7.008   35.586    0.845    1.842  -16.075   19.247  114.295   -0.021    2.069    2.063
 1223.500 1037.669    9.003   40.413  608.817   50.396    4.387    5.959    6.486   11.340   13.324   69.104    6.472   14.471    8.095   36.378    0.845    2.444  -16.626   14.467  114.295   -0.038    2.055    2.050
 1224.000 1037.446    9.184   39.544  608.676   44.733    5.515    8.735    9.158   15.442   18.592   60.248    7.797   16.598    8.545   36.617    0.845    3.458  -16.790   13.643  114.310   -0.047    2.051    2.046
 1224.500 1037.213    9.408   38.763  608.526   46.134    4.857    8.483    8.611   13.826   16.944   64.913    7.711   15.405    8.068   36.851    0.845    3.195  -16.674   15.434  114.310   -0.046    2.048    2.042
 1225.000 1036.970    9.505   40.171  608.365   52.807    3.295    6.012    5.919    9.009   11.003   77.254    7.074   12.944    7.149   36.230    0.845    2.000  -16.537   15.119  114.310   -0.032    2.058    2.052
 1225.500 1036.724    9.456   43.185  608.202   59.146    3.550    6.509    6.299    9.015   10.931   87.393    6.815   11.443    6.217   34.530    0.845    1.792  -16.613   10.195  114.310   -0.013    2.087    2.080
 1226.000 1036.481    9.385   44.446  608.041   59.985    4.016    7.474    7.204    9.731   11.589   92.342    6.983   10.829    5.753   32.948    0.845    1.718  -16.988    5.245  114.310    0.001    2.113    2.106
 1226.500 1036.241    9.369   43.581  607.884   55.579    3.924    7.245    7.058    9.030   10.592   97.550    7.012   10.251    5.942   32.664    0.845    1.541  -17.565    3.659  114.310    0.002    2.117    2.111
 1227.000 1036.002    9.383   43.430  607.727   52.308    3.968    7.339    7.300    8.945   10.316  105.197    6.762    9.506    6.260   34.268    0.845    1.664  -18.177    3.786  114.324   -0.008    2.091    2.085
 1227.500 1035.762    9.401   44.570  607.569   53.187    3.664    6.728    6.879    8.154    9.299  114.333    6.328    8.746    6.616   36.659    0.845    1.734  -18.795    6.474  114.324   -0.022    2.051    2.045
 1228.000 1035.520    9.428   45.562  607.410   55.614    3.359    6.124    6.456    7.483    8.447  123.906    5.851    8.071    7.580   38.196    0.845    1.721  -19.237   12.012  114.324   -0.035    2.026    2.020
 1228.500 1035.277    9.452   46.242  607.250   56.381    3.132    5.662    6.156    7.019    7.881  134.309    5.349    7.446    8.943   38.506    0.845    1.633  -19.422   15.595  114.324   -0.045    2.020    2.015
 1229.000 1035.034    9.369   47.211  607.089   55.914    2.512    4.462    4.982    5.622    6.282  143.273    4.958    6.980    9.861   37.756    0.844    1.248  -19.421   14.282  114.339   -0.044    2.033    2.027
 1229.500 1034.798    9.115   47.776  606.935   55.099    2.483    4.286    4.885    5.472    6.098  142.995    4.916    6.993    9.296   36.163    0.844    1.104  -19.378   12.755  114.339   -0.029    2.059    2.053
 1230.000 1034.575    8.833   47.157  606.795   54.293    3.095    5.194    6.002    6.689    7.432  134.742    5.187    7.422    7.084   34.963    0.844    1.252  -19.581   10.145  114.339   -0.008    2.079    2.073
 1230.500 1034.364    8.756   46.255  606.666   55.306    3.609    5.881    6.849    7.603    8.429  128.756    5.419    7.767    5.031   35.114    0.844    1.433  -19.878    5.103  114.339    0.008    2.076    2.071
 1231.000 1034.154    8.903   44.807  606.538   59.136    3.628    5.665    6.623    7.333    8.106  133.739    5.225    7.477    4.420   36.784    0.844    1.523  -20.043    2.230  114.339    0.008    2.049    2.043
 1231.500 1033.935    9.075   43.104  606.402   62.320    3.251    4.838    5.667    6.263    6.906  147.171    4.761    6.795    4.945   39.089    0.844    1.478  -20.065    4.800  114.339   -0.002    2.010    2.005
 1232.000 1033.709    9.121   42.245  606.259   62.554    2.942    4.189    4.909    5.421    5.959  159.883    4.397    6.255    5.935   40.128    0.844    1.350  -20.048    9.707  114.353   -0.007    1.993    1.988
