~Version Information
 VERS.                2.00:   CWLS log ASCII Standard -VERSION 2.00
 WRAP.                  NO:   One line per frame      
~Well Information Block
#MNEM.UNIT                  Well Data                    Data Description
#----.----   -----------------------------------------   -------------------------------
 STRT.FT                                      1214.000 : Starting Depth
 STOP.FT                                      3832.000 : Ending Depth
 STEP.FT                                         0.500 : Level Spacing
 NULL.                                       -999.2500 : Absent Value
 COMP.        LAVACA RIVER OPERATING CO., LLC          : Company
 WELL.        MYSKA, ROBERT #4 ST                      : Well
 FLD .        BOLING                                   : Field
 LOC .        593' FNEL & 414' FEL OF LEASE            : Location
 CNTY.        FORT BEND                                : County
 STAT.        TEXAS                                    : State
 CTRY.        USA                                      : Country
 SRVC.        Baker Hughes                             : Service Company
 DATE.        10-SEP-2014                              : Log Date
 API .        42-157-32993                             : API Number
 UWI .        42-157-32993                             : Unique Well ID
~Curve Information Block
#MNEM    .UNIT        API Codes     Curve Description
#--------.--------   ------------   -------------------------------
 DEPT    .FT         99 995 99  1 : Depth
 BVOL    .F3         70 995 99  1 : Borehole volume
 CAL     .IN         70 280 99  1 : Caliper
 CNCF    .PU         42 995 99  1 : Field normalized compensated neutron porosity
 CVOL    .F3         70 995 99  1 : Cement volume
 GR      .GAPI       30 310  1  1 : Gamma ray
 M1R1    .OHMM        8 120 10  1 : Vertical 1-foot resolution matched resistivity, 10-inch DOI
 M1R2    .OHMM        8 120 20  1 : Vertical 1-foot resolution matched resistivity, 20-inch DOI
 M1R3    .OHMM        8 120 30  1 : Vertical 1-foot resolution matched resistivity, 30-inch DOI
 M1R6    .OHMM        8 120 60  1 : Vertical 1-foot resolution matched resistivity, 60-inch DOI
 M1R9    .OHMM        8 120 90  1 : Vertical 1-foot resolution matched resistivity, 90-inch DOI
 M2CC9   .MMHO        8 110 90  1 : HDIL 2-foot resolution compressed conductivity, 90-inch DOI
 M2R2    .OHMM        8 120 20  1 : Vertical 2-foot resolution matched resistivity, 20-inch DOI
 M2R9    .OHMM        8 120 90  1 : Vertical 2-foot resolution matched resistivity, 90-inch DOI
 PE      .B/E        45 358  1  1 : Photo electric cross-section
 PORZC   .PU         99 995 99  1 : Corrected porosity
 RMA     .OHMM       99 995 99  1 : Calculated borehole resistivity for ABC processing
 RWAZC   .           94 935  7  1 : Apparent formation water resistivity (corrected)
 SP      .MV          1  10  1  1 : Spontaneous Potential
 TEN     .LBF        99 635 99  1 : Differential tension
 TXTEMP  .DEGF       99 995 99  1 : Temperature near transmitter coil
 ZCOR    .G/C3       45 356 99  1 : Density correction
 ZDEN    .G/C3       45 350  1  1 : Formation bulk density
 ZDNC    .G/C3       94 995 99  1 : Borehole size/mud weight corrected density
~Parameter Information Block
#MNEM.UNIT             Parameter Value                  Parameter Description
#----.----   ----------------------------------------   -------------------------------
 HIDE.       HIGH DEFINITION INDUCTION LOG^S          : Header Identifer
 HID1.       COMPENSATED Z-DENSILOG^S                 : Header Identifer
 HID2.       COMPENSATED NEUTRON LOG                  : Header Identifer
 HID3.       GAMMA RAY LOG                            : Header Identifer
 CMT4.       HAZELETT 1                               : Comment 4  
 FL1 .       414' FSEL & 567' F SOUTH RIVER OF THE    : Field Location 1
 FL2 .       BETTNE, C A SURVEY      A-11             : Field Location 2
 OS1 .       1" HDIL/GR                               : Other Services Line 1
 OS2 .       TVD                                      : Other Services Line 2
 PDAT.       GL                                       : Permanent Datum
 EPD .FT     72                                       : Elevation Of Perm. Datum
 LMF .       KB                                       : Log Measured From
 APD .FT     12                                       : Above Permanent Datum
 DMF .       KB                                       : Drilling Measured From
 EKB .FT     84                                       : Elevation Of Kelly Bushing
 EDF .FT     83                                       : Elevation Of Derrick Floor
 EGL .FT     72                                       : Elevation Of Ground Level
 RUN .       1                                        : Run Number
 TRIP.       1                                        : Trip Number
 SON .       90010                                    : Service Order Number
 TDD .FT     3830                                     : Total Depth - Driller
 TDL .FT     3832                                     : Total Depth - Logger
 BLI .FT     3830                                     : Bottom Log Interval
 TLI .FT     1214                                     : Top Log Interval
 CSIZ.IN     8.625                                    : Casing Size
 CBDR.FT     1212                                     : Casing Bottom - Driller
 CBLO.FT     1214                                     : Casing Bottom - Logger
 BS  .IN     7.875                                    : Bit Size
 DFT .       WBM                                      : Drilling Fluid Type
 DFD .LB/G   9.6                                      : Drilling Fluid Density
 DFV .S      43                                       : Drilling Fluid Viscosity
 DFPH.       10                                       : Drilling Fluid Ph
 DFL .C3     8                                        : Drilling Fluid Loss
 MSS .       FLOWLINE                                 : Mud Sample Source
 RMS .OHMM   1.12                                     : Resistivity Of Mud Sample
 MST .DEGF   75                                       : Mud Sample Temperature
 RMFS.OHMM   0.84                                     : Resistivity Of Mud Filtrate Sample
 MFST.DEGF   75                                       : Mud Filtrate Sample Temperature
 RMCS.OHMM   1.40                                     : Resistivity Of Mud Cake Sample
 MCST.DEGF   75                                       : Mud Cake Sample Temperature
 MFSS.       C                                        : Mud Filtrate Sample Source
 MCSS.       C                                        : Mud Cake Sample Source
 RMB .OHMM   0.71                                     : Mud Resistivity At Bht
 BHT .DEGF   122                                      : Bottom Hole Temperature
 TSC .       8 HRS                                    : Time Since Circulation
 MRT .DEGF   122                                      : Maximum Recorded Temperature
 LUN .       HL-6681                                  : Logging Unit Number
 LUL .       VICTORIA,TX                              : Logging Unit Location
 ENGI.       O. FADAYOMI                              : Engineer's Name
 WITN.       EPPS / PELLEGRINI                        : Witness' Name
 TSTR.       HDIL/ZDL/CN/GR                           : Title Service Mnemonic
 TSTG.       NA                                       : Title Service Mnemonic
 STUS.       FINAL                                    : Status
 LCNM.       BAKER ATLAS                              : Logging Company Name
 LCC .       150                                      : Logging Company Code
 OPMD.       OH.WIRE                                  : Operation Mode
 PANA.       O. FADAYOMI                              : Processing Analyst
 PCON.       BAKER ATLAS                              : Processing Contractor
~Other information
 BVOL = TOTAL BOREHOLE VOLUME                                                    
 CVOL = TOTAL CEMENT VOLUME, BASED ON 5.5" CSG                                   
 DENSITY MATRIX = SANDSTONE, 2.65 G/CC                                           
 NEUTRON MATRIX = SANDSTONE                                                      
 REPEAT SECTION LOGGED BELOW SURFACE CASING DUE TO TIGHT SPOTS AT TD.            
 HL-6681 CREW:  L. BRINKMAN, J. GUILLEN                                          
#  Curve Data
~A DEPT     BVOL     CAL      CNCF     CVOL     GR       M1R1     M1R2     M1R3     M1R6     M1R9     M2CC9    M2R2     M2R9     PE       PORZC    RMA      RWAZC    SP       TEN      TXTEMP   ZCOR     ZDEN     ZDNC    
# ...
 2083.500  678.341    7.729   38.027  391.379   50.630    2.658    2.906    3.041    3.107    3.093  319.807    2.938    3.127    3.328   24.266    0.764    0.238  -27.991  -43.874  119.033    0.030    2.256    2.250
 2084.000  678.179    7.724   37.413  391.299   50.844    2.720    2.988    3.135    3.209    3.202  321.182    2.905    3.113    3.331   24.778    0.764    0.257  -28.331  -36.810  119.033    0.040    2.247    2.241
 2084.500  678.016    7.723   37.003  391.219   51.708    2.652    2.921    3.073    3.151    3.151  326.325    2.841    3.064    3.286   24.968    0.764    0.257  -28.943  -39.136  119.033    0.048    2.244    2.238
 2085.000  677.853    7.722   36.926  391.139   52.897    2.480    2.733    2.880    2.958    2.964  334.558    2.756    2.989    3.136   24.696    0.763    0.236  -29.669  -31.955  119.033    0.055    2.249    2.243
 2085.500  677.691    7.721   37.056  391.058   55.552    2.406    2.646    2.792    2.872    2.883  340.657    2.694    2.936    3.056   23.851    0.763    0.213  -30.298  -11.302  119.033    0.066    2.263    2.256
 2086.000  677.528    7.720   37.429  390.978   58.353    2.404    2.633    2.780    2.864    2.879  342.270    2.672    2.922    3.134   22.862    0.763    0.195  -30.642   10.185  119.033    0.075    2.279    2.273
 2086.500  677.365    7.720   38.016  390.898   59.494    2.458    2.679    2.828    2.916    2.936  341.635    2.671    2.927    3.292   22.509    0.763    0.192  -30.726   24.323  119.047    0.076    2.285    2.279
 2087.000  677.203    7.720   38.673  390.818   59.895    2.471    2.680    2.828    2.918    2.943  342.011    2.662    2.924    3.491   23.172    0.763    0.205  -30.798   30.257  119.047    0.075    2.274    2.268
 2087.500  677.040    7.720   39.161  390.738   60.290    2.439    2.635    2.781    2.873    2.900  343.820    2.643    2.908    3.663   24.243    0.763    0.222  -30.833   30.463  119.047    0.077    2.256    2.250
 2088.000  676.878    7.720   39.303  390.658   60.273    2.448    2.644    2.791    2.888    2.919  345.553    2.622    2.894    3.693   24.983    0.763    0.239  -30.924   32.514  119.047    0.080    2.244    2.238
 2088.500  676.715    7.720   39.260  390.578   59.508    2.442    2.645    2.796    2.897    2.931  346.608    2.603    2.885    3.545   25.423    0.763    0.249  -31.141   35.810  119.047    0.076    2.236    2.231
 2089.000  676.552    7.720   39.190  390.498   58.502    2.401    2.612    2.767    2.872    2.909  347.881    2.581    2.875    3.316   26.135    0.763    0.262  -31.467   33.448  119.047    0.065    2.225    2.219
 2089.500  676.390    7.720   38.811  390.418   57.670    2.335    2.554    2.713    2.821    2.861  350.286    2.549    2.855    3.206   27.304    0.763    0.283  -31.796   28.477  119.062    0.053    2.205    2.199
 2090.000  676.227    7.720   38.273  390.338   58.519    2.294    2.525    2.690    2.802    2.846  353.633    2.509    2.828    3.239   28.467    0.763    0.308  -32.061   24.619  119.062    0.045    2.186    2.180
 2090.500  676.065    7.721   38.774  390.258   61.130    2.259    2.501    2.672    2.789    2.836  358.466    2.460    2.790    3.192   29.236    0.763    0.325  -32.250   15.121  119.062    0.041    2.173    2.168
 2091.000  675.902    7.722   40.670  390.178   63.130    2.178    2.421    2.595    2.712    2.762  365.932    2.395    2.733    3.032   29.931    0.763    0.333  -32.391   -0.017  119.076    0.040    2.162    2.156
 2091.500  675.739    7.723   42.443  390.097   63.815    2.094    2.334    2.508    2.626    2.679  374.839    2.325    2.668    2.978   30.893    0.763    0.346  -32.451  -10.062  119.076    0.042    2.146    2.140
 2092.000  675.577    7.723   42.880  390.017   64.669    2.039    2.277    2.452    2.571    2.627  382.932    2.264    2.611    3.062   31.752    0.763    0.360  -32.433  -10.955  119.076    0.045    2.131    2.126
 2092.500  675.414    7.722   42.928  389.937   66.495    1.992    2.225    2.400    2.521    2.579  389.902    2.213    2.565    3.077   32.385    0.763    0.368  -32.377  -10.980  119.076    0.047    2.121    2.116
 2093.000  675.252    7.721   42.973  389.857   67.844    1.947    2.174    2.347    2.468    2.529  396.354    2.169    2.523    2.967   32.939    0.763    0.375  -32.267  -20.551  119.076    0.044    2.111    2.107
 2093.500  675.089    7.722   42.649  389.777   68.887    1.914    2.134    2.304    2.425    2.488  402.460    2.131    2.485    2.916   33.367    0.763    0.379  -32.082  -36.726  119.076    0.041    2.104    2.099
 2094.000  674.926    7.722   41.955  389.697   69.686    1.883    2.093    2.257    2.377    2.441  407.750    2.102    2.452    2.970   33.519    0.763    0.375  -31.843  -45.302  119.076    0.039    2.102    2.097
 2094.500  674.764    7.721   42.000  389.617   68.982    1.885    2.085    2.243    2.363    2.428  411.674    2.085    2.429    2.999   33.653    0.763    0.377  -31.509  -41.005  119.076    0.038    2.100    2.095
 2095.000  674.601    7.720   43.193  389.537   68.376    1.891    2.076    2.226    2.344    2.410  413.853    2.081    2.416    2.953   33.961    0.763    0.381  -31.117  -39.475  119.076    0.035    2.094    2.090
 2095.500  674.439    7.721   44.155  389.456   69.507    1.892    2.054    2.193    2.308    2.373  412.343    2.098    2.425    2.884   33.962    0.763    0.376  -30.858  -47.338  119.091    0.034    2.094    2.090
 2096.000  674.276    7.722   44.013  389.376   71.841    1.929    2.068    2.198    2.312    2.378  404.326    2.151    2.473    2.837   33.016    0.763    0.354  -30.851  -54.020  119.091    0.038    2.110    2.105
 2096.500  674.113    7.722   43.497  389.296   74.395    2.103    2.237    2.369    2.490    2.561  391.544    2.231    2.554    2.879   31.361    0.763    0.341  -31.068  -56.795  119.091    0.044    2.138    2.133
 2097.000  673.951    7.722   43.345  389.216   76.330    2.263    2.397    2.531    2.659    2.735  382.877    2.289    2.612    2.991   30.292    0.762    0.338  -31.367  -58.748  119.091    0.046    2.156    2.150
 2097.500  673.788    7.722   42.973  389.136   76.830    2.193    2.319    2.448    2.570    2.645  385.030    2.278    2.597    2.914   30.006    0.762    0.321  -31.692  -55.094  119.091    0.043    2.160    2.155
 2098.000  673.626    7.723   42.633  389.056   76.605    2.105    2.236    2.363    2.481    2.554  395.078    2.216    2.531    2.679   29.674    0.762    0.302  -31.950  -46.829  119.091    0.042    2.166    2.160
 2098.500  673.463    7.724   42.907  388.976   77.132    2.046    2.190    2.320    2.436    2.509  407.335    2.143    2.455    2.568   29.388    0.762    0.291  -32.041  -40.830  119.091    0.043    2.171    2.165
 2099.000  673.300    7.722   43.601  388.896   77.662    1.928    2.080    2.211    2.322    2.393  419.343    2.072    2.385    2.636   29.976    0.762    0.290  -31.995  -36.006  119.091    0.042    2.161    2.155
 2099.500  673.138    7.721   43.512  388.815   77.391    1.837    1.995    2.127    2.235    2.306  428.921    2.017    2.331    2.721   31.234    0.762    0.305  -31.884  -34.781  119.091    0.038    2.140    2.135
 2100.000  672.975    7.720   42.955  388.735   77.035    1.816    1.983    2.120    2.230    2.302  435.181    1.979    2.298    2.753   32.427    0.762    0.330  -31.737  -40.130  119.105    0.033    2.120    2.115
 2100.500  672.812    7.720   43.617  388.655   76.856    1.801    1.975    2.116    2.228    2.302  440.149    1.949    2.272    2.762   33.330    0.762    0.350  -31.624  -42.702  119.105    0.031    2.105    2.100
 2101.000  672.650    7.720   45.733  388.575   75.471    1.766    1.942    2.085    2.198    2.273  446.004    1.916    2.242    2.709   33.957    0.762    0.359  -31.612  -34.288  119.105    0.031    2.094    2.090
 2101.500  672.487    7.720   47.895  388.495   73.418    1.718    1.893    2.036    2.149    2.224  452.782    1.880    2.209    2.628   34.438    0.762    0.363  -31.697  -25.732  119.120    0.034    2.086    2.082
