~Version Information
 VERS.                2.00:   CWLS log ASCII Standard -VERSION 2.00
 WRAP.                  NO:   One line per frame      
~Well Information Block
#MNEM.UNIT                  Well Data                    Data Description
#----.----   -----------------------------------------   -------------------------------
 STRT.FT                                      1214.000 : Starting Depth
 STOP.FT                                      3832.000 : Ending Depth
 STEP.FT                                         0.500 : Level Spacing
 NULL.                                       -999.2500 : Absent Value
 COMP.        LAVACA RIVER OPERATING CO., LLC          : Company
 WELL.        MYSKA, ROBERT #4 ST                      : Well
 FLD .        BOLING                                   : Field
 LOC .        593' FNEL & 414' FEL OF LEASE            : Location
 CNTY.        FORT BEND                                : County
 STAT.        TEXAS                                    : State
 CTRY.        USA                                      : Country
 SRVC.        Baker Hughes                             : Service Company
 DATE.        10-SEP-2014                              : Log Date
 API .        42-157-32993                             : API Number
 UWI .        42-157-32993                             : Unique Well ID
~Curve Information Block
#MNEM    .UNIT        API Codes     Curve Description
#--------.--------   ------------   -------------------------------
 DEPT    .FT         99 995 99  1 : Depth
 BVOL    .F3         70 995 99  1 : Borehole volume
 CAL     .IN         70 280 99  1 : Caliper
 CNCF    .PU         42 995 99  1 : Field normalized compensated neutron porosity
 CVOL    .F3         70 995 99  1 : Cement volume
 GR      .GAPI       30 310  1  1 : Gamma ray
 M1R1    .OHMM        8 120 10  1 : Vertical 1-foot resolution matched resistivity, 10-inch DOI
 M1R2    .OHMM        8 120 20  1 : Vertical 1-foot resolution matched resistivity, 20-inch DOI
 M1R3    .OHMM        8 120 30  1 : Vertical 1-foot resolution matched resistivity, 30-inch DOI
 M1R6    .OHMM        8 120 60  1 : Vertical 1-foot resolution matched resistivity, 60-inch DOI
 M1R9    .OHMM        8 120 90  1 : Vertical 1-foot resolution matched resistivity, 90-inch DOI
 M2CC9   .MMHO        8 110 90  1 : HDIL 2-foot resolution compressed conductivity, 90-inch DOI
 M2R2    .OHMM        8 120 20  1 : Vertical 2-foot resolution matched resistivity, 20-inch DOI
 M2R9    .OHMM        8 120 90  1 : Vertical 2-foot resolution matched resistivity, 90-inch DOI
 PE      .B/E        45 358  1  1 : Photo electric cross-section
 PORZC   .PU         99 995 99  1 : Corrected porosity
 RMA     .OHMM       99 995 99  1 : Calculated borehole resistivity for ABC processing
 RWAZC   .           94 935  7  1 : Apparent formation water resistivity (corrected)
 SP      .MV          1  10  1  1 : Spontaneous Potential
 TEN     .LBF        99 635 99  1 : Differential tension
 TXTEMP  .DEGF       99 995 99  1 : Temperature near transmitter coil
 ZCOR    .G/C3       45 356 99  1 : Density correction
 ZDEN    .G/C3       45 350  1  1 : Formation bulk density
 ZDNC    .G/C3       94 995 99  1 : Borehole size/mud weight corrected density
~Parameter Information Block
#MNEM.UNIT             Parameter Value                  Parameter Description
#----.----   ----------------------------------------   -------------------------------
 HIDE.       HIGH DEFINITION INDUCTION LOG^S          : Header Identifer
 HID1.       COMPENSATED Z-DENSILOG^S                 : Header Identifer
 HID2.       COMPENSATED NEUTRON LOG                  : Header Identifer
 HID3.       GAMMA RAY LOG                            : Header Identifer
 CMT4.       HAZELETT 1                               : Comment 4  
 FL1 .       414' FSEL & 567' F SOUTH RIVER OF THE    : Field Location 1
 FL2 .       BETTNE, C A SURVEY      A-11             : Field Location 2
 OS1 .       1" HDIL/GR                               : Other Services Line 1
 OS2 .       TVD                                      : Other Services Line 2
 PDAT.       GL                                       : Permanent Datum
 EPD .FT     72                                       : Elevation Of Perm. Datum
 LMF .       KB                                       : Log Measured From
 APD .FT     12                                       : Above Permanent Datum
 DMF .       KB                                       : Drilling Measured From
 EKB .FT     84                                       : Elevation Of Kelly Bushing
 EDF .FT     83                                       : Elevation Of Derrick Floor
 EGL .FT     72                                       : Elevation Of Ground Level
 RUN .       1                                        : Run Number
 TRIP.       1                                        : Trip Number
 SON .       90010                                    : Service Order Number
 TDD .FT     3830                                     : Total Depth - Driller
 TDL .FT     3832                                     : Total Depth - Logger
 BLI .FT     3830                                     : Bottom Log Interval
 TLI .FT     1214                                     : Top Log Interval
 CSIZ.IN     8.625                                    : Casing Size
 CBDR.FT     1212                                     : Casing Bottom - Driller
 CBLO.FT     1214                                     : Casing Bottom - Logger
 BS  .IN     7.875                                    : Bit Size
 DFT .       WBM                                      : Drilling Fluid Type
 DFD .LB/G   9.6                                      : Drilling Fluid Density
 DFV .S      43                                       : Drilling Fluid Viscosity
 DFPH.       10                                       : Drilling Fluid Ph
 DFL .C3     8                                        : Drilling Fluid Loss
 MSS .       FLOWLINE                                 : Mud Sample Source
 RMS .OHMM   1.12                                     : Resistivity Of Mud Sample
 MST .DEGF   75                                       : Mud Sample Temperature
 RMFS.OHMM   0.84                                     : Resistivity Of Mud Filtrate Sample
 MFST.DEGF   75                                       : Mud Filtrate Sample Temperature
 RMCS.OHMM   1.40                                     : Resistivity Of Mud Cake Sample
 MCST.DEGF   75                                       : Mud Cake Sample Temperature
 MFSS.       C                                        : Mud Filtrate Sample Source
 MCSS.       C                                        : Mud Cake Sample Source
 RMB .OHMM   0.71                                     : Mud Resistivity At Bht
 BHT .DEGF   122                                      : Bottom Hole Temperature
 TSC .       8 HRS                                    : Time Since Circulation
 MRT .DEGF   122                                      : Maximum Recorded Temperature
 LUN .       HL-6681                                  : Logging Unit Number
 LUL .       VICTORIA,TX                              : Logging Unit Location
 ENGI.       O. FADAYOMI                              : Engineer's Name
 WITN.       EPPS / PELLEGRINI                        : Witness' Name
 TSTR.       HDIL/ZDL/CN/GR                           : Title Service Mnemonic
 TSTG.       NA                                       : Title Service Mnemonic
 STUS.       FINAL                                    : Status
 LCNM.       BAKER ATLAS                              : Logging Company Name
 LCC .       150                                      : Logging Company Code
 OPMD.       OH.WIRE                                  : Operation Mode
 PANA.       O. FADAYOMI                              : Processing Analyst
 PCON.       BAKER ATLAS                              : Processing Contractor
~Other information
 BVOL = TOTAL BOREHOLE VOLUME                                                    
 CVOL = TOTAL CEMENT VOLUME, BASED ON 5.5" CSG                                   
 DENSITY MATRIX = SANDSTONE, 2.65 G/CC                                           
 NEUTRON MATRIX = SANDSTONE                                                      
 REPEAT SECTION LOGGED BELOW SURFACE CASING DUE TO TIGHT SPOTS AT TD.            
 HL-6681 CREW:  L. BRINKMAN, J. GUILLEN                                          
#  Curve Data
~A DEPT     BVOL     CAL      CNCF     CVOL     GR       M1R1     M1R2     M1R3     M1R6     M1R9     M2CC9    M2R2     M2R9     PE       PORZC    RMA      RWAZC    SP       TEN      TXTEMP   ZCOR     ZDEN     ZDNC    
# ...
 1917.000  742.816    8.431   49.107  428.383   88.896    1.799    1.943    2.058    2.137    2.175  461.783    1.935    2.166    2.307   37.254    0.778    0.420  -31.752  -32.959  118.219    0.019    2.040    2.035
 1917.500  742.622    8.422   48.007  428.272   81.189    1.758    1.899    2.015    2.097    2.132  464.019    1.920    2.155    2.250   38.644    0.778    0.445  -31.767  -25.061  118.248    0.017    2.017    2.012
 1918.000  742.428    8.487   47.574  428.160   79.316    1.764    1.905    2.021    2.108    2.140  462.293    1.925    2.163    2.230   39.136    0.778    0.459  -31.895  -22.065  118.248    0.018    2.009    2.004
 1918.500  742.230    8.636   48.825  428.045   80.618    1.796    1.932    2.046    2.140    2.167  453.175    1.967    2.207    2.247   39.064    0.778    0.463  -32.125  -22.038  118.248    0.019    2.010    2.005
 1919.000  742.025    8.792   50.638  427.922   79.278    1.896    2.024    2.135    2.239    2.261  434.315    2.061    2.302    2.359   38.226    0.778    0.461  -32.260  -20.167  118.248    0.019    2.024    2.019
 1919.500  741.813    8.876   50.307  427.792   77.132    1.992    2.092    2.190    2.303    2.318  404.911    2.225    2.470    2.568   35.894    0.778    0.413  -32.249  -19.850  118.248    0.021    2.063    2.058
 1920.000  741.598    8.896   46.716  427.660   76.300    2.078    2.129    2.202    2.309    2.316  358.999    2.531    2.786    2.747   31.281    0.778    0.307  -32.118  -23.683  118.248    0.027    2.140    2.134
 1920.500  741.382    8.901   42.059  427.526   72.783    2.720    2.727    2.808    2.940    2.941  291.336    3.145    3.432    2.815   24.816    0.778    0.237  -31.961  -29.427  118.263    0.033    2.247    2.241
 1921.000  741.166    8.920   38.845  427.392   64.647    5.576    5.447    5.693    6.133    6.111  229.899    4.003    4.350    3.082   19.808    0.778    0.303  -31.885  -29.592  118.263    0.032    2.330    2.323
 1921.500  740.948    8.959   37.886  427.258   57.815    6.388    6.309    6.600    7.131    7.080  210.583    4.389    4.749    3.675   19.669    0.778    0.346  -31.917  -18.488  118.263    0.024    2.332    2.325
 1922.000  740.729    9.009   38.628  427.121   58.005    3.822    3.907    4.043    4.252    4.226  229.196    4.030    4.363    3.982   22.189    0.778    0.268  -31.971   -6.333  118.277    0.021    2.291    2.284
 1922.500  740.507    9.054   39.384  426.981   61.883    3.663    3.875    4.045    4.236    4.208  258.840    3.558    3.863    3.849   24.166    0.778    0.320  -31.984   -5.804  118.277    0.026    2.258    2.251
 1923.000  740.283    9.094   39.256  426.840   62.647    2.723    2.920    3.069    3.198    3.177  282.389    3.256    3.541    3.621   24.304    0.778    0.245  -31.912  -16.819  118.277    0.033    2.256    2.249
 1923.500  740.057    9.134   38.931  426.696   60.185    2.555    2.757    2.910    3.016    2.997  289.870    3.173    3.450    3.475   22.896    0.778    0.203  -31.762  -32.979  118.277    0.040    2.279    2.272
 1924.000  739.829    9.172   38.762  426.550   58.932    3.765    4.216    4.456    4.596    4.572  291.275    3.166    3.433    3.341   22.851    0.778    0.309  -31.565  -41.965  118.277    0.040    2.280    2.273
 1924.500  739.599    9.198   38.856  426.403   61.160    2.934    3.234    3.417    3.512    3.498  311.762    2.966    3.208    3.126   25.628    0.777    0.302  -31.373  -36.501  118.277    0.032    2.234    2.227
 1925.000  739.368    9.209   39.197  426.255   65.240    2.256    2.470    2.608    2.676    2.667  342.895    2.700    2.916    2.914   28.073    0.777    0.280  -31.198  -29.442  118.277    0.027    2.193    2.187
 1925.500  739.137    9.210   39.317  426.106   66.470    2.269    2.480    2.619    2.685    2.679  357.387    2.590    2.798    2.828   27.972    0.777    0.279  -31.028  -29.364  118.292    0.027    2.195    2.188
 1926.000  738.905    9.210   39.141  425.957   63.212    2.362    2.574    2.718    2.789    2.783  353.044    2.620    2.833    2.858   26.282    0.777    0.254  -30.841  -25.747  118.292    0.029    2.223    2.216
 1926.500  738.674    9.209   38.817  425.808   58.489    2.468    2.680    2.827    2.905    2.900  342.602    2.697    2.919    2.895   24.761    0.777    0.233  -30.667  -20.143  118.292    0.030    2.248    2.241
 1927.000  738.443    9.210   38.255  425.660   56.595    2.567    2.774    2.921    3.009    3.002  332.693    2.777    3.006    2.925   23.996    0.777    0.225  -30.557  -25.092  118.306    0.029    2.261    2.254
 1927.500  738.211    9.221   37.939  425.511   57.618    2.671    2.868    3.012    3.110    3.100  322.940    2.865    3.097    2.973   23.374    0.777    0.220  -30.555  -39.725  118.306    0.031    2.271    2.264
 1928.000  737.979    9.261   37.786  425.361   59.556    2.719    2.888    3.021    3.126    3.114  311.042    2.982    3.215    3.013   22.359    0.777    0.201  -30.631  -51.147  118.306    0.034    2.288    2.281
 1928.500  737.744    9.335   37.060  425.209   60.554    2.732    2.857    2.967    3.077    3.061  291.077    3.198    3.436    3.024   20.736    0.777    0.168  -30.714  -47.208  118.306    0.038    2.315    2.308
 1929.000  737.505    9.425   35.970  425.052   59.612    3.235    3.347    3.459    3.590    3.568  258.448    3.619    3.869    3.094   18.726    0.777    0.157  -30.738  -30.869  118.306    0.044    2.348    2.341
 1929.500  737.262    9.508   35.276  424.892   56.717    4.742    4.894    5.057    5.251    5.214  226.043    4.162    4.424    3.255   17.342    0.777    0.194  -30.698  -18.989  118.306    0.058    2.371    2.364
 1930.000  737.015    9.565   35.126  424.727   54.997    4.680    4.797    4.924    5.111    5.074  212.696    4.445    4.702    3.408   17.437    0.777    0.191  -30.640  -23.341  118.306    0.074    2.369    2.362
 1930.500  736.765    9.580   35.130  424.559   55.380    4.239    4.378    4.485    4.651    4.619  216.771    4.372    4.613    3.503   18.705    0.777    0.203  -30.596  -30.883  118.306    0.077    2.349    2.341
 1931.000  736.514    9.633   35.382  424.391   55.374    4.061    4.248    4.355    4.510    4.484  225.382    4.203    4.437    3.528   20.218    0.777    0.233  -30.576  -28.805  118.306    0.067    2.324    2.316
 1931.500  736.259    9.780   36.465  424.219   54.865    3.593    3.803    3.912    4.043    4.027  231.925    4.072    4.312    3.455   21.251    0.777    0.233  -30.561  -20.898  118.306    0.056    2.306    2.299
 1932.000  735.997    9.864   38.305  424.039   56.596    3.621    3.866    3.994    4.120    4.115  234.975    3.998    4.256    3.331   21.733    0.777    0.249  -30.557  -19.628  118.306    0.043    2.299    2.291
 1932.500  735.732    9.767   39.123  423.857   59.805    3.723    4.002    4.155    4.276    4.284  238.240    3.920    4.197    3.226   21.759    0.777    0.260  -30.574  -27.566  118.306    0.029    2.298    2.291
 1933.000  735.474    9.605   38.646  423.681   60.326    4.080    4.419    4.611    4.736    4.761  251.716    3.687    3.973    3.230   22.174    0.777    0.301  -30.626  -39.258  118.335    0.022    2.291    2.284
 1933.500  735.225    9.476   38.861  423.514   57.926    3.322    3.627    3.801    3.899    3.933  284.533    3.241    3.515    3.320   24.076    0.777    0.297  -30.688  -48.109  118.335    0.020    2.260    2.253
 1934.000  734.981    9.357   40.186  423.353   55.786    2.457    2.695    2.834    2.905    2.941  327.757    2.796    3.051    3.424   26.394    0.777    0.271  -30.744  -52.300  118.335    0.023    2.221    2.214
 1934.500  734.744    9.268   41.232  423.198   57.131    2.232    2.449    2.582    2.647    2.687  360.730    2.527    2.772    3.511   27.707    0.777    0.274  -30.797  -50.591  118.350    0.032    2.200    2.193
 1935.000  734.510    9.233   41.699  423.047   59.467    2.205    2.415    2.548    2.615    2.662  378.309    2.397    2.643    3.541   28.420    0.777    0.287  -30.822  -44.013  118.350    0.040    2.188    2.181
