~Version Information
 VERS.                2.00:   CWLS log ASCII Standard -VERSION 2.00
 WRAP.                  NO:   One line per frame      
~Well Information Block
#MNEM.UNIT                  Well Data                    Data Description
#----.----   -----------------------------------------   -------------------------------
 STRT.FT                                      1214.000 : Starting Depth
 STOP.FT                                      3832.000 : Ending Depth
 STEP.FT                                         0.500 : Level Spacing
 NULL.                                       -999.2500 : Absent Value
 COMP.        LAVACA RIVER OPERATING CO., LLC          : Company
 WELL.        MYSKA, ROBERT #4 ST                      : Well
 FLD .        BOLING                                   : Field
 LOC .        593' FNEL & 414' FEL OF LEASE            : Location
 CNTY.        FORT BEND                                : County
 STAT.        TEXAS                                    : State
 CTRY.        USA                                      : Country
 SRVC.        Baker Hughes                             : Service Company
 DATE.        10-SEP-2014                              : Log Date
 API .        42-157-32993                             : API Number
 UWI .        42-157-32993                             : Unique Well ID
~Curve Information Block
#MNEM    .UNIT        API Codes     Curve Description
#--------.--------   ------------   -------------------------------
 DEPT    .FT         99 995 99  1 : Depth
 BVOL    .F3         70 995 99  1 : Borehole volume
 CAL     .IN         70 280 99  1 : Caliper
 CNCF    .PU         42 995 99  1 : Field normalized compensated neutron porosity
 CVOL    .F3         70 995 99  1 : Cement volume
 GR      .GAPI       30 310  1  1 : Gamma ray
 M1R1    .OHMM        8 120 10  1 : Vertical 1-foot resolution matched resistivity, 10-inch DOI
 M1R2    .OHMM        8 120 20  1 : Vertical 1-foot resolution matched resistivity, 20-inch DOI
 M1R3    .OHMM        8 120 30  1 : Vertical 1-foot resolution matched resistivity, 30-inch DOI
 M1R6    .OHMM        8 120 60  1 : Vertical 1-foot resolution matched resistivity, 60-inch DOI
 M1R9    .OHMM        8 120 90  1 : Vertical 1-foot resolution matched resistivity, 90-inch DOI
 M2CC9   .MMHO        8 110 90  1 : HDIL 2-foot resolution compressed conductivity, 90-inch DOI
 M2R2    .OHMM        8 120 20  1 : Vertical 2-foot resolution matched resistivity, 20-inch DOI
 M2R9    .OHMM        8 120 90  1 : Vertical 2-foot resolution matched resistivity, 90-inch DOI
 PE      .B/E        45 358  1  1 : Photo electric cross-section
 PORZC   .PU         99 995 99  1 : Corrected porosity
 RMA     .OHMM       99 995 99  1 : Calculated borehole resistivity for ABC processing
 RWAZC   .           94 935  7  1 : Apparent formation water resistivity (corrected)
 SP      .MV          1  10  1  1 : Spontaneous Potential
 TEN     .LBF        99 635 99  1 : Differential tension
 TXTEMP  .DEGF       99 995 99  1 : Temperature near transmitter coil
 ZCOR    .G/C3       45 356 99  1 : Density correction
 ZDEN    .G/C3       45 350  1  1 : Formation bulk density
 ZDNC    .G/C3       94 995 99  1 : Borehole size/mud weight corrected density
~Parameter Information Block
#MNEM.UNIT             Parameter Value                  Parameter Description
#----.----   ----------------------------------------   -------------------------------
 HIDE.       HIGH DEFINITION INDUCTION LOG^S          : Header Identifer
 HID1.       COMPENSATED Z-DENSILOG^S                 : Header Identifer
 HID2.       COMPENSATED NEUTRON LOG                  : Header Identifer
 HID3.       GAMMA RAY LOG                            : Header Identifer
 CMT4.       HAZELETT 1                               : Comment 4  
 FL1 .       414' FSEL & 567' F SOUTH RIVER OF THE    : Field Location 1
 FL2 .       BETTNE, C A SURVEY      A-11             : Field Location 2
 OS1 .       1" HDIL/GR                               : Other Services Line 1
 OS2 .       TVD                                      : Other Services Line 2
 PDAT.       GL                                       : Permanent Datum
 EPD .FT     72                                       : Elevation Of Perm. Datum
 LMF .       KB                                       : Log Measured From
 APD .FT     12                                       : Above Permanent Datum
 DMF .       KB                                       : Drilling Measured From
 EKB .FT     84                                       : Elevation Of Kelly Bushing
 EDF .FT     83                                       : Elevation Of Derrick Floor
 EGL .FT     72                                       : Elevation Of Ground Level
 RUN .       1                                        : Run Number
 TRIP.       1                                        : Trip Number
 SON .       90010                                    : Service Order Number
 TDD .FT     3830                                     : Total Depth - Driller
 TDL .FT     3832                                     : Total Depth - Logger
 BLI .FT     3830                                     : Bottom Log Interval
 TLI .FT     1214                                     : Top Log Interval
 CSIZ.IN     8.625                                    : Casing Size
 CBDR.FT     1212                                     : Casing Bottom - Driller
 CBLO.FT     1214                                     : Casing Bottom - Logger
 BS  .IN     7.875                                    : Bit Size
 DFT .       WBM                                      : Drilling Fluid Type
 DFD .LB/G   9.6                                      : Drilling Fluid Density
 DFV .S      43                                       : Drilling Fluid Viscosity
 DFPH.       10                                       : Drilling Fluid Ph
 DFL .C3     8                                        : Drilling Fluid Loss
 MSS .       FLOWLINE                                 : Mud Sample Source
 RMS .OHMM   1.12                                     : Resistivity Of Mud Sample
 MST .DEGF   75                                       : Mud Sample Temperature
 RMFS.OHMM   0.84                                     : Resistivity Of Mud Filtrate Sample
 MFST.DEGF   75                                       : Mud Filtrate Sample Temperature
 RMCS.OHMM   1.40                                     : Resistivity Of Mud Cake Sample
 MCST.DEGF   75                                       : Mud Cake Sample Temperature
 MFSS.       C                                        : Mud Filtrate Sample Source
 MCSS.       C                                        : Mud Cake Sample Source
 RMB .OHMM   0.71                                     : Mud Resistivity At Bht
 BHT .DEGF   122                                      : Bottom Hole Temperature
 TSC .       8 HRS                                    : Time Since Circulation
 MRT .DEGF   122                                      : Maximum Recorded Temperature
 LUN .       HL-6681                                  : Logging Unit Number
 LUL .       VICTORIA,TX                              : Logging Unit Location
 ENGI.       O. FADAYOMI                              : Engineer's Name
 WITN.       EPPS / PELLEGRINI                        : Witness' Name
 TSTR.       HDIL/ZDL/CN/GR                           : Title Service Mnemonic
 TSTG.       NA                                       : Title Service Mnemonic
 STUS.       FINAL                                    : Status
 LCNM.       BAKER ATLAS                              : Logging Company Name
 LCC .       150                                      : Logging Company Code
 OPMD.       OH.WIRE                                  : Operation Mode
 PANA.       O. FADAYOMI                              : Processing Analyst
 PCON.       BAKER ATLAS                              : Processing Contractor
~Other information
 BVOL = TOTAL BOREHOLE VOLUME                                                    
 CVOL = TOTAL CEMENT VOLUME, BASED ON 5.5" CSG                                   
 DENSITY MATRIX = SANDSTONE, 2.65 G/CC                                           
 NEUTRON MATRIX = SANDSTONE                                                      
 REPEAT SECTION LOGGED BELOW SURFACE CASING DUE TO TIGHT SPOTS AT TD.            
 HL-6681 CREW:  L. BRINKMAN, J. GUILLEN                                          
#  Curve Data
~A DEPT     BVOL     CAL      CNCF     CVOL     GR       M1R1     M1R2     M1R3     M1R6     M1R9     M2CC9    M2R2     M2R9     PE       PORZC    RMA      RWAZC    SP       TEN      TXTEMP   ZCOR     ZDEN     ZDNC    
# ...
 2953.000  345.455    8.700   37.596  201.950   69.453    1.578    1.713    1.826    1.937    1.913  481.505    1.853    2.077    3.543   19.192    0.696    0.089  -28.523  -55.828  121.779    0.075    2.340    2.333
 2953.500  345.249    8.707   33.761  201.826   70.945    2.056    2.208    2.331    2.459    2.410  414.373    2.211    2.413    3.278   16.925    0.696    0.085  -28.847  -47.268  121.779    0.080    2.378    2.371
 2954.000  345.042    8.713   30.961  201.702   70.311    2.486    2.605    2.704    2.830    2.749  358.402    2.642    2.790    2.942   14.454    0.696    0.069  -29.001  -40.900  121.779    0.085    2.419    2.412
 2954.500  344.835    8.714   29.193  201.577   68.402    2.793    2.851    2.902    2.999    2.894  320.182    3.073    3.123    2.796   11.926    0.696    0.048  -29.168  -43.292  121.779    0.083    2.460    2.453
 2955.000  344.628    8.630   27.582  201.453   64.798    3.738    3.764    3.765    3.858    3.640  294.177    3.507    3.399    2.956   10.329    0.696    0.045  -29.654  -49.980  121.765    0.069    2.487    2.480
 2955.500  344.428    8.355   26.464  201.335   59.246    4.890    4.942    4.845    4.889    4.484  282.416    3.850    3.541    3.343   11.961    0.696    0.075  -30.407  -47.694  121.765    0.053    2.460    2.453
 2956.000  344.241    8.062   26.566  201.231   54.062    4.190    4.318    4.164    4.119    3.807  291.121    3.896    3.435    3.526   16.301    0.696    0.124  -31.123  -34.085  121.765    0.049    2.388    2.381
 2956.500  344.066    7.903   27.907  201.138   50.864    3.078    3.228    3.063    2.976    2.750  309.769    3.789    3.228    3.355   18.581    0.696    0.119  -31.534  -25.907  121.765    0.060    2.350    2.343
 2957.000  343.898    7.669   29.175  201.053   48.769    3.264    3.423    3.192    3.052    2.811  311.023    3.916    3.215    3.248   17.549    0.696    0.108  -31.506  -26.528  121.765    0.064    2.367    2.360
 2957.500  343.741    7.281   28.259  200.979   45.916    4.390    4.479    4.083    3.836    3.505  294.471    4.333    3.396    3.470   15.030    0.696    0.096  -31.316  -22.676  121.765    0.059    2.409    2.402
 2958.000  343.600    7.017   25.077  200.920   42.781    4.454    4.275    3.776    3.515    3.232  277.964    4.840    3.598    3.702   12.220    0.695    0.057  -31.592  -14.225  121.779    0.060    2.455    2.448
 2958.500  343.466    6.938   22.491  200.869   41.542    5.185    4.526    3.952    3.644    3.349  269.711    5.207    3.708    3.526    9.215    0.695    0.032  -32.732  -14.896  121.779    0.057    2.505    2.498
 2959.000  343.336    6.845   21.558  200.821   41.947    7.206    5.558    4.630    4.187    3.817  273.395    5.227    3.658    3.194    7.128    0.695    0.021  -34.977  -24.723  121.779    0.037    2.539    2.532
 2959.500  343.209    6.705   21.441  200.777   41.587    6.744    4.923    4.130    3.760    3.476  288.314    4.908    3.468    3.129    7.043    0.695    0.019  -38.578  -31.846  121.779    0.017    2.541    2.534
 2960.000  343.088    6.592   21.419  200.738   39.544    6.954    4.797    4.009    3.651    3.401  307.946    4.496    3.247    3.287    8.693    0.695    0.029  -43.258  -34.481  121.779    0.011    2.514    2.507
 2960.500  342.970    6.543   21.989  200.702   37.983    6.924    4.643    3.880    3.538    3.322  331.465    4.068    3.017    3.338   11.163    0.695    0.048  -48.332  -34.703  121.779    0.015    2.473    2.466
 2961.000  342.853    6.537   23.730  200.668   38.896    5.316    3.794    3.256    3.009    2.865  361.007    3.629    2.770    3.099   13.527    0.695    0.063  -52.901  -31.667  121.779    0.023    2.434    2.427
 2961.500  342.737    6.538   26.040  200.634   40.801    4.304    3.199    2.796    2.610    2.512  391.835    3.264    2.552    2.810   15.323    0.695    0.072  -56.337  -28.859  121.779    0.028    2.405    2.397
 2962.000  342.620    6.536   27.538  200.600   41.782    4.060    3.003    2.632    2.467    2.389  414.281    3.042    2.414    2.705   15.566    0.695    0.071  -58.665  -31.302  121.779    0.035    2.401    2.393
 2962.500  342.504    6.534   27.515  200.566   41.835    3.648    2.709    2.391    2.256    2.198  423.054    2.964    2.364    2.789   13.680    0.695    0.049  -60.425  -35.611  121.779    0.046    2.432    2.424
 2963.000  342.387    6.532   26.653  200.532   41.416    4.222    2.929    2.548    2.398    2.343  421.160    2.979    2.374    2.912   11.799    0.695    0.038  -62.052  -36.592  121.779    0.055    2.464    2.455
 2963.500  342.271    6.532   25.765  200.498   40.735    4.975    3.172    2.718    2.554    2.502  421.817    2.964    2.371    2.952   12.941    0.695    0.050  -63.609  -33.720  121.779    0.049    2.445    2.436
 2964.000  342.155    6.533   25.145  200.465   40.960    4.095    2.721    2.374    2.255    2.223  433.061    2.851    2.309    3.021   15.277    0.695    0.063  -65.035  -28.275  121.779    0.037    2.407    2.398
 2964.500  342.038    6.534   24.883  200.431   41.972    3.844    2.561    2.251    2.152    2.130  448.306    2.707    2.231    3.112   15.597    0.695    0.063  -66.376  -26.365  121.779    0.030    2.403    2.393
 2965.000  341.922    6.534   25.058  200.397   43.717    4.797    2.925    2.536    2.423    2.405  462.263    2.575    2.163    3.187   14.897    0.695    0.065  -67.659  -28.434  121.779    0.027    2.415    2.404
 2965.500  341.805    6.534   26.205  200.363   45.133    4.230    2.719    2.392    2.305    2.298  479.885    2.424    2.084    3.296   16.834    0.695    0.080  -68.775  -29.146  121.779    0.023    2.383    2.372
 2966.000  341.689    6.528   28.551  200.329   45.261    3.059    2.210    2.002    1.953    1.955  502.339    2.256    1.991    3.305   20.908    0.695    0.109  -69.420  -29.095  121.779    0.021    2.316    2.305
 2966.500  341.573    6.476   30.620  200.295   44.723    2.739    2.069    1.902    1.872    1.880  520.804    2.118    1.920    3.165   23.911    0.695    0.140  -68.755  -32.944  121.765    0.020    2.267    2.255
 2967.000  341.460    6.334   31.180  200.265   44.220    2.334    1.858    1.742    1.731    1.742  516.842    2.078    1.935    3.012   24.313    0.695    0.134  -65.993  -38.848  121.765    0.020    2.262    2.249
 2967.500  341.352    6.164   30.778  200.239   43.238    2.448    1.984    1.884    1.889    1.910  470.823    2.216    2.124    2.979   22.294    0.695    0.122  -60.940  -37.475  121.765    0.021    2.299    2.282
 2968.000  341.249    6.066   31.049  200.219   43.600    4.156    3.221    3.078    3.141    3.218  405.001    2.471    2.469    3.067   19.577    0.695    0.156  -53.855  -30.082  121.779    0.023    2.343    2.327
 2968.500  341.149    6.045   32.752  200.202   47.480    5.555    4.785    4.809    5.066    5.305  391.512    2.427    2.554    3.163   20.178    0.695    0.274  -46.049  -28.829  121.779    0.025    2.334    2.317
 2969.000  341.049    6.045   35.696  200.184   54.100    2.421    2.519    2.603    2.679    2.736  476.590    1.931    2.098    3.149   24.995    0.695    0.224  -39.130  -36.580  121.779    0.029    2.254    2.238
 2969.500  340.950    6.034   39.229  200.167   60.561    1.238    1.377    1.462    1.512    1.549  604.676    1.470    1.654    2.997   30.415    0.695    0.193  -34.109  -40.005  121.779    0.039    2.164    2.148
 2970.000  340.851    6.011   43.070  200.151   65.062    1.029    1.186    1.283    1.333    1.368  697.989    1.242    1.433    2.740   33.954    0.695    0.216  -31.074  -33.833  121.779    0.050    2.106    2.090
 2970.500  340.752    6.002   46.030  200.135   68.180    0.984    1.150    1.257    1.309    1.345  741.879    1.152    1.348    2.543   35.577    0.695    0.235  -29.504  -26.872  121.779    0.058    2.079    2.063
 2971.000  340.654    6.084   47.578  200.119   70.924    0.954    1.114    1.222    1.274    1.311  762.834    1.114    1.311    2.495   35.860    0.695    0.233  -28.558  -24.370  121.794    0.066    2.074    2.058
