~Version Information
 VERS.                2.00:   CWLS log ASCII Standard -VERSION 2.00
 WRAP.                  NO:   One line per frame      
~Well Information Block
#MNEM.UNIT                  Well Data                    Data Description
#----.----   -----------------------------------------   -------------------------------
 STRT.FT                                      1214.000 : Starting Depth
 STOP.FT                                      3832.000 : Ending Depth
 STEP.FT                                         0.500 : Level Spacing
 NULL.                                       -999.2500 : Absent Value
 COMP.        LAVACA RIVER OPERATING CO., LLC          : Company
 WELL.        MYSKA, ROBERT #4 ST                      : Well
 FLD .        BOLING                                   : Field
 LOC .        593' FNEL & 414' FEL OF LEASE            : Location
 CNTY.        FORT BEND                                : County
 STAT.        TEXAS                                    : State
 CTRY.        USA                                      : Country
 SRVC.        Baker Hughes                             : Service Company
 DATE.        10-SEP-2014                              : Log Date
 API .        42-157-32993                             : API Number
 UWI .        42-157-32993                             : Unique Well ID
~Curve Information Block
#MNEM    .UNIT        API Codes     Curve Description
#--------.--------   ------------   -------------------------------
 DEPT    .FT         99 995 99  1 : Depth
 BVOL    .F3         70 995 99  1 : Borehole volume
 CAL     .IN         70 280 99  1 : Caliper
 CNCF    .PU         42 995 99  1 : Field normalized compensated neutron porosity
 CVOL    .F3         70 995 99  1 : Cement volume
 GR      .GAPI       30 310  1  1 : Gamma ray
 M1R1    .OHMM        8 120 10  1 : Vertical 1-foot resolution matched resistivity, 10-inch DOI
 M1R2    .OHMM        8 120 20  1 : Vertical 1-foot resolution matched resistivity, 20-inch DOI
 M1R3    .OHMM        8 120 30  1 : Vertical 1-foot resolution matched resistivity, 30-inch DOI
 M1R6    .OHMM        8 120 60  1 : Vertical 1-foot resolution matched resistivity, 60-inch DOI
 M1R9    .OHMM        8 120 90  1 : Vertical 1-foot resolution matched resistivity, 90-inch DOI
 M2CC9   .MMHO        8 110 90  1 : HDIL 2-foot resolution compressed conductivity, 90-inch DOI
 M2R2    .OHMM        8 120 20  1 : Vertical 2-foot resolution matched resistivity, 20-inch DOI
 M2R9    .OHMM        8 120 90  1 : Vertical 2-foot resolution matched resistivity, 90-inch DOI
 PE      .B/E        45 358  1  1 : Photo electric cross-section
 PORZC   .PU         99 995 99  1 : Corrected porosity
 RMA     .OHMM       99 995 99  1 : Calculated borehole resistivity for ABC processing
 RWAZC   .           94 935  7  1 : Apparent formation water resistivity (corrected)
 SP      .MV          1  10  1  1 : Spontaneous Potential
 TEN     .LBF        99 635 99  1 : Differential tension
 TXTEMP  .DEGF       99 995 99  1 : Temperature near transmitter coil
 ZCOR    .G/C3       45 356 99  1 : Density correction
 ZDEN    .G/C3       45 350  1  1 : Formation bulk density
 ZDNC    .G/C3       94 995 99  1 : Borehole size/mud weight corrected density
~Parameter Information Block
#MNEM.UNIT             Parameter Value                  Parameter Description
#----.----   ----------------------------------------   -------------------------------
 HIDE.       HIGH DEFINITION INDUCTION LOG^S          : Header Identifer
 HID1.       COMPENSATED Z-DENSILOG^S                 : Header Identifer
 HID2.       COMPENSATED NEUTRON LOG                  : Header Identifer
 HID3.       GAMMA RAY LOG                            : Header Identifer
 CMT4.       HAZELETT 1                               : Comment 4  
 FL1 .       414' FSEL & 567' F SOUTH RIVER OF THE    : Field Location 1
 FL2 .       BETTNE, C A SURVEY      A-11             : Field Location 2
 OS1 .       1" HDIL/GR                               : Other Services Line 1
 OS2 .       TVD                                      : Other Services Line 2
 PDAT.       GL                                       : Permanent Datum
 EPD .FT     72                                       : Elevation Of Perm. Datum
 LMF .       KB                                       : Log Measured From
 APD .FT     12                                       : Above Permanent Datum
 DMF .       KB                                       : Drilling Measured From
 EKB .FT     84                                       : Elevation Of Kelly Bushing
 EDF .FT     83                                       : Elevation Of Derrick Floor
 EGL .FT     72                                       : Elevation Of Ground Level
 RUN .       1                                        : Run Number
 TRIP.       1                                        : Trip Number
 SON .       90010                                    : Service Order Number
 TDD .FT     3830                                     : Total Depth - Driller
 TDL .FT     3832                                     : Total Depth - Logger
 BLI .FT     3830                                     : Bottom Log Interval
 TLI .FT     1214                                     : Top Log Interval
 CSIZ.IN     8.625                                    : Casing Size
 CBDR.FT     1212                                     : Casing Bottom - Driller
 CBLO.FT     1214                                     : Casing Bottom - Logger
 BS  .IN     7.875                                    : Bit Size
 DFT .       WBM                                      : Drilling Fluid Type
 DFD .LB/G   9.6                                      : Drilling Fluid Density
 DFV .S      43                                       : Drilling Fluid Viscosity
 DFPH.       10                                       : Drilling Fluid Ph
 DFL .C3     8                                        : Drilling Fluid Loss
 MSS .       FLOWLINE                                 : Mud Sample Source
 RMS .OHMM   1.12                                     : Resistivity Of Mud Sample
 MST .DEGF   75                                       : Mud Sample Temperature
 RMFS.OHMM   0.84                                     : Resistivity Of Mud Filtrate Sample
 MFST.DEGF   75                                       : Mud Filtrate Sample Temperature
 RMCS.OHMM   1.40                                     : Resistivity Of Mud Cake Sample
 MCST.DEGF   75                                       : Mud Cake Sample Temperature
 MFSS.       C                                        : Mud Filtrate Sample Source
 MCSS.       C                                        : Mud Cake Sample Source
 RMB .OHMM   0.71                                     : Mud Resistivity At Bht
 BHT .DEGF   122                                      : Bottom Hole Temperature
 TSC .       8 HRS                                    : Time Since Circulation
 MRT .DEGF   122                                      : Maximum Recorded Temperature
 LUN .       HL-6681                                  : Logging Unit Number
 LUL .       VICTORIA,TX                              : Logging Unit Location
 ENGI.       O. FADAYOMI                              : Engineer's Name
 WITN.       EPPS / PELLEGRINI                        : Witness' Name
 TSTR.       HDIL/ZDL/CN/GR                           : Title Service Mnemonic
 TSTG.       NA                                       : Title Service Mnemonic
 STUS.       FINAL                                    : Status
 LCNM.       BAKER ATLAS                              : Logging Company Name
 LCC .       150                                      : Logging Company Code
 OPMD.       OH.WIRE                                  : Operation Mode
 PANA.       O. FADAYOMI                              : Processing Analyst
 PCON.       BAKER ATLAS                              : Processing Contractor
~Other information
 BVOL = TOTAL BOREHOLE VOLUME                                                    
 CVOL = TOTAL CEMENT VOLUME, BASED ON 5.5" CSG                                   
 DENSITY MATRIX = SANDSTONE, 2.65 G/CC                                           
 NEUTRON MATRIX = SANDSTONE                                                      
 REPEAT SECTION LOGGED BELOW SURFACE CASING DUE TO TIGHT SPOTS AT TD.            
 HL-6681 CREW:  L. BRINKMAN, J. GUILLEN                                          
#  Curve Data
~A DEPT     BVOL     CAL      CNCF     CVOL     GR       M1R1     M1R2     M1R3     M1R6     M1R9     M2CC9    M2R2     M2R9     PE       PORZC    RMA      RWAZC    SP       TEN      TXTEMP   ZCOR     ZDEN     ZDNC    
# ...
 2601.500  483.214    7.906   46.848  281.717   75.884    1.455    1.544    1.618    1.681    1.711  583.018    1.548    1.715    2.770   28.588    0.722    0.187  -27.425  -15.083  120.995    0.041    2.184    2.178
 2602.000  483.043    7.908   46.972  281.629   70.654    1.471    1.558    1.631    1.694    1.723  578.854    1.563    1.728    2.664   28.057    0.722    0.181  -27.295  -25.533  120.995    0.039    2.193    2.187
 2602.500  482.873    7.917   45.617  281.540   67.678    1.487    1.573    1.645    1.709    1.736  574.378    1.578    1.741    2.537   27.642    0.722    0.176  -27.158  -34.754  120.995    0.038    2.200    2.194
 2603.000  482.702    7.931   43.961  281.452   69.041    1.510    1.597    1.669    1.734    1.761  571.945    1.586    1.748    2.530   27.391    0.722    0.175  -27.297  -12.517  120.995    0.037    2.204    2.198
 2603.500  482.530    7.944   43.903  281.363   70.118    1.509    1.598    1.671    1.737    1.762  571.703    1.586    1.749    2.565   27.211    0.722    0.173  -27.646   22.856  120.995    0.036    2.207    2.201
 2604.000  482.358    7.957   45.035  281.273   69.645    1.495    1.589    1.664    1.730    1.754  571.645    1.584    1.749    2.519   27.132    0.722    0.171  -27.917   34.123  121.009    0.033    2.208    2.202
 2604.500  482.185    7.973   45.901  281.183   69.812    1.481    1.581    1.659    1.727    1.750  570.391    1.584    1.753    2.452   27.367    0.722    0.174  -28.139   25.896  121.009    0.032    2.204    2.198
 2605.000  482.011    7.987   46.649  281.092   71.621    1.483    1.592    1.676    1.745    1.767  568.995    1.584    1.757    2.519   28.282    0.721    0.189  -28.467   30.714  121.009    0.034    2.189    2.183
 2605.500  481.837    7.993   47.106  281.000   73.765    1.472    1.589    1.676    1.747    1.768  569.729    1.578    1.755    2.617   29.977    0.721    0.214  -28.819   42.347  121.009    0.037    2.161    2.155
 2606.000  481.663    7.994   46.320  280.908   74.832    1.444    1.564    1.653    1.723    1.743  572.218    1.568    1.748    2.554   31.827    0.721    0.240  -29.218   41.826  121.009    0.037    2.130    2.125
 2606.500  481.489    7.995   45.468  280.816   74.896    1.426    1.548    1.637    1.706    1.725  572.888    1.566    1.746    2.431   32.852    0.721    0.254  -29.356   31.630  121.009    0.036    2.113    2.108
 2607.000  481.314    7.998   46.157  280.725   74.456    1.439    1.563    1.652    1.722    1.740  568.923    1.579    1.758    2.439   32.775    0.721    0.255  -29.345   16.455  121.024    0.038    2.114    2.109
 2607.500  481.140    8.002   47.246  280.633   74.948    1.467    1.592    1.681    1.750    1.767  560.928    1.606    1.783    2.584   32.092    0.721    0.248  -29.402   -1.399  121.024    0.045    2.126    2.120
 2608.000  480.965    8.007   46.627  280.540   78.136    1.507    1.631    1.718    1.788    1.803  552.571    1.637    1.810    2.695   30.973    0.721    0.234  -29.510  -11.328  121.024    0.050    2.144    2.139
 2608.500  480.790    8.010   45.179  280.448   81.013    1.545    1.665    1.749    1.817    1.831  546.939    1.663    1.828    2.739   29.394    0.721    0.212  -29.663   -3.059  121.024    0.051    2.171    2.165
 2609.000  480.615    8.013   44.357  280.355   81.102    1.567    1.679    1.758    1.822    1.834  543.840    1.683    1.839    2.750   27.930    0.721    0.191  -29.861    9.426  121.024    0.048    2.195    2.189
 2609.500  480.440    8.015   44.159  280.263   80.841    1.581    1.680    1.751    1.811    1.821  541.221    1.705    1.848    2.804   27.228    0.721    0.179  -30.099    3.943  121.024    0.040    2.207    2.201
 2610.000  480.265    8.016   43.454  280.170   79.618    1.608    1.694    1.758    1.814    1.821  536.524    1.734    1.864    2.925   26.707    0.721    0.172  -30.349  -14.815  121.024    0.030    2.215    2.209
 2610.500  480.090    8.013   41.830  280.077   75.530    1.665    1.740    1.798    1.850    1.855  527.688    1.778    1.895    3.160   25.558    0.721    0.159  -30.583  -28.669  121.024    0.025    2.234    2.228
 2611.000  479.915    8.008   39.879  279.985   71.334    1.792    1.862    1.916    1.966    1.969  517.571    1.827    1.932    3.391   23.870    0.721    0.146  -30.781  -34.061  121.024    0.027    2.262    2.256
 2611.500  479.740    8.001   38.557  279.893   68.304    1.827    1.888    1.936    1.983    1.985  512.556    1.856    1.951    3.355   22.195    0.721    0.126  -30.991  -39.964  121.024    0.036    2.290    2.284
 2612.000  479.565    7.998   38.304  279.801   64.554    1.798    1.853    1.898    1.940    1.941  513.823    1.857    1.946    3.151   20.962    0.721    0.109  -31.270  -52.593  121.024    0.044    2.311    2.304
 2612.500  479.391    7.998   38.883  279.709   62.732    1.772    1.829    1.875    1.915    1.917  517.090    1.846    1.934    3.149   20.258    0.721    0.100  -31.631  -67.362  121.024    0.050    2.322    2.316
 2613.000  479.216    7.999   39.343  279.617   64.854    1.791    1.862    1.914    1.956    1.958  519.810    1.830    1.924    3.260   20.159    0.721    0.101  -31.971  -72.340  121.038    0.054    2.324    2.317
 2613.500  479.042    7.999   39.367  279.525   68.109    1.765    1.855    1.915    1.959    1.963  523.731    1.804    1.909    3.197   21.047    0.721    0.111  -32.167  -67.825  121.038    0.052    2.309    2.303
 2614.000  478.867    8.001   39.919  279.433   70.274    1.680    1.787    1.856    1.902    1.908  530.627    1.765    1.885    3.051   22.916    0.721    0.130  -32.184  -56.986  121.038    0.044    2.278    2.272
 2614.500  478.693    8.007   41.235  279.340   72.538    1.599    1.721    1.798    1.847    1.856  538.538    1.721    1.857    2.942   24.784    0.721    0.149  -32.082  -39.157  121.038    0.038    2.247    2.241
 2615.000  478.518    8.022   42.334  279.248   73.623    1.558    1.693    1.780    1.833    1.845  545.083    1.683    1.835    2.862   25.986    0.721    0.164  -31.971  -18.638  121.038    0.038    2.227    2.221
 2615.500  478.342    8.038   42.615  279.155   72.053    1.519    1.662    1.757    1.814    1.829  551.182    1.649    1.814    2.833   26.673    0.721    0.172  -31.918   -0.663  121.038    0.041    2.216    2.210
 2616.000  478.166    8.047   42.214  279.061   69.971    1.475    1.619    1.718    1.778    1.795  557.952    1.616    1.792    2.866   27.130    0.721    0.175  -31.910   17.030  121.053    0.041    2.208    2.202
 2616.500  477.989    8.048   41.082  278.967   69.624    1.449    1.592    1.694    1.757    1.775  564.307    1.589    1.772    2.940   27.319    0.721    0.176  -31.897   30.471  121.053    0.036    2.205    2.199
 2617.000  477.813    8.048   39.906  278.873   69.860    1.424    1.562    1.663    1.728    1.747  568.074    1.574    1.760    2.982   27.106    0.721    0.170  -31.849   25.300  121.053    0.032    2.209    2.203
 2617.500  477.636    8.048   39.412  278.779   70.412    1.424    1.556    1.656    1.722    1.741  567.432    1.575    1.762    2.882   26.775    0.721    0.165  -31.740   -0.908  121.053    0.033    2.214    2.208
 2618.000  477.459    8.052   39.450  278.684   72.552    1.448    1.574    1.671    1.737    1.756  562.616    1.593    1.777    2.703   26.618    0.720    0.165  -31.587  -27.223  121.053    0.039    2.217    2.211
 2618.500  477.282    8.074   39.913  278.590   74.659    1.481    1.595    1.686    1.751    1.769  554.321    1.627    1.804    2.624   26.703    0.720    0.167  -31.462  -38.962  121.053    0.043    2.215    2.209
 2619.000  477.104    8.112   40.917  278.494   74.458    1.537    1.636    1.718    1.782    1.798  541.240    1.681    1.848    2.672   26.819    0.720    0.171  -31.436  -43.483  121.067    0.045    2.213    2.207
 2619.500  476.924    8.142   41.300  278.397   73.552    1.654    1.739    1.814    1.877    1.892  523.495    1.756    1.910    2.684   26.013    0.720    0.169  -31.526  -47.382  121.067    0.060    2.227    2.221
