~Version Information
 VERS.                2.00:   CWLS log ASCII Standard -VERSION 2.00
 WRAP.                  NO:   One line per frame      
~Well Information Block
#MNEM.UNIT                  Well Data                    Data Description
#----.----   -----------------------------------------   -------------------------------
 STRT.FT                                      1214.000 : Starting Depth
 STOP.FT                                      3832.000 : Ending Depth
 STEP.FT                                         0.500 : Level Spacing
 NULL.                                       -999.2500 : Absent Value
 COMP.        LAVACA RIVER OPERATING CO., LLC          : Company
 WELL.        MYSKA, ROBERT #4 ST                      : Well
 FLD .        BOLING                                   : Field
 LOC .        593' FNEL & 414' FEL OF LEASE            : Location
 CNTY.        FORT BEND                                : County
 STAT.        TEXAS                                    : State
 CTRY.        USA                                      : Country
 SRVC.        Baker Hughes                             : Service Company
 DATE.        10-SEP-2014                              : Log Date
 API .        42-157-32993                             : API Number
 UWI .        42-157-32993                             : Unique Well ID
~Curve Information Block
#MNEM    .UNIT        API Codes     Curve Description
#--------.--------   ------------   -------------------------------
 DEPT    .FT         99 995 99  1 : Depth
 BVOL    .F3         70 995 99  1 : Borehole volume
 CAL     .IN         70 280 99  1 : Caliper
 CNCF    .PU         42 995 99  1 : Field normalized compensated neutron porosity
 CVOL    .F3         70 995 99  1 : Cement volume
 GR      .GAPI       30 310  1  1 : Gamma ray
 M1R1    .OHMM        8 120 10  1 : Vertical 1-foot resolution matched resistivity, 10-inch DOI
 M1R2    .OHMM        8 120 20  1 : Vertical 1-foot resolution matched resistivity, 20-inch DOI
 M1R3    .OHMM        8 120 30  1 : Vertical 1-foot resolution matched resistivity, 30-inch DOI
 M1R6    .OHMM        8 120 60  1 : Vertical 1-foot resolution matched resistivity, 60-inch DOI
 M1R9    .OHMM        8 120 90  1 : Vertical 1-foot resolution matched resistivity, 90-inch DOI
 M2CC9   .MMHO        8 110 90  1 : HDIL 2-foot resolution compressed conductivity, 90-inch DOI
 M2R2    .OHMM        8 120 20  1 : Vertical 2-foot resolution matched resistivity, 20-inch DOI
 M2R9    .OHMM        8 120 90  1 : Vertical 2-foot resolution matched resistivity, 90-inch DOI
 PE      .B/E        45 358  1  1 : Photo electric cross-section
 PORZC   .PU         99 995 99  1 : Corrected porosity
 RMA     .OHMM       99 995 99  1 : Calculated borehole resistivity for ABC processing
 RWAZC   .           94 935  7  1 : Apparent formation water resistivity (corrected)
 SP      .MV          1  10  1  1 : Spontaneous Potential
 TEN     .LBF        99 635 99  1 : Differential tension
 TXTEMP  .DEGF       99 995 99  1 : Temperature near transmitter coil
 ZCOR    .G/C3       45 356 99  1 : Density correction
 ZDEN    .G/C3       45 350  1  1 : Formation bulk density
 ZDNC    .G/C3       94 995 99  1 : Borehole size/mud weight corrected density
~Parameter Information Block
#MNEM.UNIT             Parameter Value                  Parameter Description
#----.----   ----------------------------------------   -------------------------------
 HIDE.       HIGH DEFINITION INDUCTION LOG^S          : Header Identifer
 HID1.       COMPENSATED Z-DENSILOG^S                 : Header Identifer
 HID2.       COMPENSATED NEUTRON LOG                  : Header Identifer
 HID3.       GAMMA RAY LOG                            : Header Identifer
 CMT4.       HAZELETT 1                               : Comment 4  
 FL1 .       414' FSEL & 567' F SOUTH RIVER OF THE    : Field Location 1
 FL2 .       BETTNE, C A SURVEY      A-11             : Field Location 2
 OS1 .       1" HDIL/GR                               : Other Services Line 1
 OS2 .       TVD                                      : Other Services Line 2
 PDAT.       GL                                       : Permanent Datum
 EPD .FT     72                                       : Elevation Of Perm. Datum
 LMF .       KB                                       : Log Measured From
 APD .FT     12                                       : Above Permanent Datum
 DMF .       KB                                       : Drilling Measured From
 EKB .FT     84                                       : Elevation Of Kelly Bushing
 EDF .FT     83                                       : Elevation Of Derrick Floor
 EGL .FT     72                                       : Elevation Of Ground Level
 RUN .       1                                        : Run Number
 TRIP.       1                                        : Trip Number
 SON .       90010                                    : Service Order Number
 TDD .FT     3830                                     : Total Depth - Driller
 TDL .FT     3832                                     : Total Depth - Logger
 BLI .FT     3830                                     : Bottom Log Interval
 TLI .FT     1214                                     : Top Log Interval
 CSIZ.IN     8.625                                    : Casing Size
 CBDR.FT     1212                                     : Casing Bottom - Driller
 CBLO.FT     1214                                     : Casing Bottom - Logger
 BS  .IN     7.875                                    : Bit Size
 DFT .       WBM                                      : Drilling Fluid Type
 DFD .LB/G   9.6                                      : Drilling Fluid Density
 DFV .S      43                                       : Drilling Fluid Viscosity
 DFPH.       10                                       : Drilling Fluid Ph
 DFL .C3     8                                        : Drilling Fluid Loss
 MSS .       FLOWLINE                                 : Mud Sample Source
 RMS .OHMM   1.12                                     : Resistivity Of Mud Sample
 MST .DEGF   75                                       : Mud Sample Temperature
 RMFS.OHMM   0.84                                     : Resistivity Of Mud Filtrate Sample
 MFST.DEGF   75                                       : Mud Filtrate Sample Temperature
 RMCS.OHMM   1.40                                     : Resistivity Of Mud Cake Sample
 MCST.DEGF   75                                       : Mud Cake Sample Temperature
 MFSS.       C                                        : Mud Filtrate Sample Source
 MCSS.       C                                        : Mud Cake Sample Source
 RMB .OHMM   0.71                                     : Mud Resistivity At Bht
 BHT .DEGF   122                                      : Bottom Hole Temperature
 TSC .       8 HRS                                    : Time Since Circulation
 MRT .DEGF   122                                      : Maximum Recorded Temperature
 LUN .       HL-6681                                  : Logging Unit Number
 LUL .       VICTORIA,TX                              : Logging Unit Location
 ENGI.       O. FADAYOMI                              : Engineer's Name
 WITN.       EPPS / PELLEGRINI                        : Witness' Name
 TSTR.       HDIL/ZDL/CN/GR                           : Title Service Mnemonic
 TSTG.       NA                                       : Title Service Mnemonic
 STUS.       FINAL                                    : Status
 LCNM.       BAKER ATLAS                              : Logging Company Name
 LCC .       150                                      : Logging Company Code
 OPMD.       OH.WIRE                                  : Operation Mode
 PANA.       O. FADAYOMI                              : Processing Analyst
 PCON.       BAKER ATLAS                              : Processing Contractor
~Other information
 BVOL = TOTAL BOREHOLE VOLUME                                                    
 CVOL = TOTAL CEMENT VOLUME, BASED ON 5.5" CSG                                   
 DENSITY MATRIX = SANDSTONE, 2.65 G/CC                                           
 NEUTRON MATRIX = SANDSTONE                                                      
 REPEAT SECTION LOGGED BELOW SURFACE CASING DUE TO TIGHT SPOTS AT TD.            
 HL-6681 CREW:  L. BRINKMAN, J. GUILLEN                                          
#  Curve Data
~A DEPT     BVOL     CAL      CNCF     CVOL     GR       M1R1     M1R2     M1R3     M1R6     M1R9     M2CC9    M2R2     M2R9     PE       PORZC    RMA      RWAZC    SP       TEN      TXTEMP   ZCOR     ZDEN     ZDNC    
# ...
 2435.000  547.669    9.253   43.715  318.701   87.395    1.575    1.757    1.907    2.027    2.090  480.558    1.749    2.081    3.072   28.462    0.735    0.226  -31.946  -18.679  120.442    0.082    2.187    2.180
 2435.500  547.439    8.965   44.491  318.553   86.466    1.520    1.701    1.851    1.971    2.033  491.543    1.703    2.034    3.159   29.804    0.735    0.243  -31.429  -32.045  120.442    0.070    2.165    2.158
 2436.000  547.223    8.728   45.124  318.420   83.161    1.455    1.624    1.770    1.888    1.948  497.057    1.678    2.012    3.352   31.621    0.735    0.264  -30.958  -31.549  120.442    0.053    2.134    2.128
 2436.500  547.017    8.649   44.578  318.296   76.129    1.463    1.626    1.772    1.895    1.955  488.561    1.702    2.047    3.520   32.161    0.735    0.275  -30.745  -23.048  120.442    0.039    2.125    2.119
 2437.000  546.813    8.646   43.697  318.175   68.047    1.581    1.753    1.910    2.048    2.114  465.906    1.780    2.146    3.554   30.266    0.735    0.261  -30.864  -20.228  120.442    0.041    2.157    2.151
 2437.500  546.609    8.643   42.671  318.053   64.503    1.697    1.873    2.041    2.195    2.266  438.264    1.886    2.282    3.545   26.993    0.734    0.219  -31.165  -22.708  120.457    0.057    2.211    2.205
 2438.000  546.405    8.635   40.912  317.932   65.602    1.799    1.984    2.165    2.336    2.413  413.383    1.989    2.419    3.630   24.630    0.734    0.191  -31.428  -24.618  120.457    0.072    2.250    2.244
 2438.500  546.202    8.630   39.224  317.811   67.489    1.907    2.119    2.320    2.512    2.596  393.524    2.074    2.541    3.689   24.071    0.734    0.196  -31.554  -24.807  120.457    0.076    2.259    2.253
 2439.000  545.999    8.639   39.047  317.691   69.309    1.999    2.257    2.486    2.699    2.790  382.564    2.114    2.614    3.605   25.090    0.734    0.230  -31.525  -27.798  120.442    0.072    2.243    2.236
 2439.500  545.795    8.669   39.807  317.569   72.031    1.909    2.193    2.433    2.647    2.736  385.858    2.077    2.592    3.475   27.758    0.734    0.281  -31.350  -34.199  120.442    0.062    2.198    2.192
 2440.000  545.590    8.704   41.316  317.446   73.410    1.697    1.981    2.214    2.410    2.489  402.241    1.978    2.486    3.356   31.240    0.734    0.329  -31.124  -38.772  120.442    0.045    2.141    2.135
 2440.500  545.383    8.720   43.889  317.322   73.133    1.567    1.850    2.078    2.261    2.333  423.304    1.874    2.362    3.215   33.812    0.734    0.366  -30.952  -41.326  120.457    0.032    2.098    2.092
 2441.000  545.175    8.722   46.017  317.197   75.401    1.499    1.776    1.997    2.169    2.236  439.431    1.808    2.276    3.060   34.942    0.734    0.376  -30.858  -44.663  120.457    0.027    2.079    2.073
 2441.500  544.968    8.738   46.091  317.072   79.759    1.468    1.728    1.940    2.101    2.162  444.105    1.800    2.252    2.989   35.333    0.734    0.372  -30.835  -44.947  120.457    0.027    2.073    2.067
 2442.000  544.759    8.779   44.273  316.946   79.548    1.548    1.804    2.012    2.173    2.231  436.809    1.851    2.289    2.971   35.021    0.734    0.377  -30.832  -40.590  120.457    0.026    2.078    2.072
 2442.500  544.548    8.824   41.507  316.818   73.402    1.650    1.885    2.083    2.241    2.297  422.004    1.945    2.370    2.969   33.327    0.734    0.349  -30.801  -35.250  120.457    0.026    2.106    2.100
 2443.000  544.335    8.869   39.444  316.687   66.777    1.766    1.959    2.138    2.292    2.344  401.590    2.081    2.490    3.053   29.818    0.734    0.280  -30.773  -36.070  120.457    0.031    2.164    2.158
 2443.500  544.120    8.940   38.336  316.555   63.419    2.044    2.211    2.383    2.545    2.596  376.981    2.258    2.653    3.246   25.147    0.734    0.215  -30.814  -41.823  120.457    0.043    2.242    2.235
 2444.000  543.901    9.022   37.120  316.418   63.310    2.369    2.507    2.677    2.847    2.899  355.626    2.435    2.812    3.308   21.325    0.734    0.169  -30.988  -45.387  120.457    0.051    2.305    2.298
 2444.500  543.678    9.082   35.746  316.278   64.176    2.556    2.664    2.823    2.992    3.040  344.152    2.552    2.906    3.133   19.887    0.734    0.152  -31.211  -45.318  120.457    0.051    2.329    2.322
 2445.000  543.453    9.156   35.495  316.135   63.744    2.563    2.664    2.806    2.964    3.006  342.125    2.592    2.923    3.007   20.062    0.734    0.153  -31.389  -47.528  120.471    0.048    2.326    2.319
 2445.500  543.223    9.297   36.920  315.987   61.397    2.454    2.568    2.703    2.847    2.882  342.734    2.600    2.918    3.046   20.518    0.734    0.154  -31.535  -52.052  120.471    0.044    2.319    2.311
 2446.000  542.985    9.490   38.636  315.831   59.174    2.412    2.559    2.701    2.837    2.868  338.653    2.635    2.953    3.140   20.828    0.734    0.159  -31.830  -56.386  120.471    0.041    2.313    2.306
 2446.500  542.736    9.706   38.977  315.665   58.467    2.517    2.722    2.885    3.025    3.053  331.028    2.694    3.021    3.184   21.712    0.734    0.185  -32.427  -62.792  120.471    0.040    2.299    2.292
 2447.000  542.477    9.877   39.031  315.488   59.006    2.646    2.914    3.101    3.246    3.272  329.234    2.705    3.037    3.075   24.411    0.734    0.255  -33.447  -70.226  120.471    0.048    2.254    2.247
 2447.500  542.209    9.944   39.860  315.304   60.208    2.400    2.678    2.860    2.989    3.009  337.549    2.637    2.963    2.929   27.958    0.734    0.313  -34.444  -75.631  120.471    0.074    2.196    2.189
 2448.000  541.940    9.894   40.580  315.117   61.623    2.126    2.387    2.556    2.667    2.680  347.235    2.565    2.880    2.924   29.111    0.734    0.304  -34.981  -76.416  120.486    0.112    2.177    2.170
 2448.500  541.676    9.588   39.877  314.935   62.463    2.166    2.433    2.607    2.717    2.725  348.451    2.563    2.870    3.032   27.207    0.734    0.268  -34.871  -74.168  120.486    0.137    2.208    2.201
 2449.000  541.432    9.037   38.741  314.774   61.292    2.412    2.716    2.908    3.024    3.028  343.373    2.613    2.912    3.129   24.448    0.734    0.236  -34.213  -75.277  120.486    0.126    2.254    2.247
 2449.500  541.216    8.576   38.765  314.640   60.127    2.414    2.693    2.876    2.985    2.983  338.387    2.668    2.955    3.183   22.887    0.734    0.202  -33.386  -80.454  120.486    0.093    2.279    2.272
 2450.000  541.018    8.421   39.534  314.525   60.952    2.310    2.532    2.693    2.791    2.783  329.686    2.760    3.033    3.225   21.690    0.734    0.168  -32.890  -83.530  120.486    0.067    2.299    2.292
 2450.500  540.825    8.413   38.734  314.414   61.910    2.553    2.777    2.936    3.036    3.021  311.410    2.949    3.211    3.220   19.887    0.733    0.151  -32.776  -78.754  120.500    0.058    2.329    2.322
 2451.000  540.631    8.428   35.969  314.303   61.040    3.145    3.424    3.607    3.723    3.697  291.079    3.186    3.435    3.182   18.587    0.733    0.160  -32.803  -65.357  120.500    0.058    2.350    2.343
 2451.500  540.437    8.460   33.851  314.192   59.719    3.314    3.569    3.730    3.842    3.808  280.152    3.345    3.569    3.158   18.270    0.733    0.159  -32.851  -56.373  120.500    0.060    2.355    2.349
 2452.000  540.242    8.494   33.505  314.079   58.621    3.053    3.231    3.353    3.447    3.411  275.430    3.440    3.631    3.107   17.812    0.733    0.135  -32.813  -61.127  120.500    0.066    2.363    2.356
 2452.500  540.045    8.515   33.635  313.964   56.664    3.151    3.300    3.401    3.488    3.446  264.514    3.620    3.781    3.052   16.851    0.733    0.121  -32.768  -66.666  120.500    0.068    2.379    2.372
 2453.000  539.847    8.516   32.843  313.849   54.024    3.808    3.961    4.059    4.153    4.096  245.609    3.938    4.072    3.109   16.196    0.733    0.132  -33.068  -58.275  120.500    0.066    2.390    2.383
