~Version Information
 VERS.                2.00:   CWLS log ASCII Standard -VERSION 2.00
 WRAP.                  NO:   One line per frame      
~Well Information Block
#MNEM.UNIT                  Well Data                    Data Description
#----.----   -----------------------------------------   -------------------------------
 STRT.FT                                      1214.000 : Starting Depth
 STOP.FT                                      3832.000 : Ending Depth
 STEP.FT                                         0.500 : Level Spacing
 NULL.                                       -999.2500 : Absent Value
 COMP.        LAVACA RIVER OPERATING CO., LLC          : Company
 WELL.        MYSKA, ROBERT #4 ST                      : Well
 FLD .        BOLING                                   : Field
 LOC .        593' FNEL & 414' FEL OF LEASE            : Location
 CNTY.        FORT BEND                                : County
 STAT.        TEXAS                                    : State
 CTRY.        USA                                      : Country
 SRVC.        Baker Hughes                             : Service Company
 DATE.        10-SEP-2014                              : Log Date
 API .        42-157-32993                             : API Number
 UWI .        42-157-32993                             : Unique Well ID
~Curve Information Block
#MNEM    .UNIT        API Codes     Curve Description
#--------.--------   ------------   -------------------------------
 DEPT    .FT         99 995 99  1 : Depth
 BVOL    .F3         70 995 99  1 : Borehole volume
 CAL     .IN         70 280 99  1 : Caliper
 CNCF    .PU         42 995 99  1 : Field normalized compensated neutron porosity
 CVOL    .F3         70 995 99  1 : Cement volume
 GR      .GAPI       30 310  1  1 : Gamma ray
 M1R1    .OHMM        8 120 10  1 : Vertical 1-foot resolution matched resistivity, 10-inch DOI
 M1R2    .OHMM        8 120 20  1 : Vertical 1-foot resolution matched resistivity, 20-inch DOI
 M1R3    .OHMM        8 120 30  1 : Vertical 1-foot resolution matched resistivity, 30-inch DOI
 M1R6    .OHMM        8 120 60  1 : Vertical 1-foot resolution matched resistivity, 60-inch DOI
 M1R9    .OHMM        8 120 90  1 : Vertical 1-foot resolution matched resistivity, 90-inch DOI
 M2CC9   .MMHO        8 110 90  1 : HDIL 2-foot resolution compressed conductivity, 90-inch DOI
 M2R2    .OHMM        8 120 20  1 : Vertical 2-foot resolution matched resistivity, 20-inch DOI
 M2R9    .OHMM        8 120 90  1 : Vertical 2-foot resolution matched resistivity, 90-inch DOI
 PE      .B/E        45 358  1  1 : Photo electric cross-section
 PORZC   .PU         99 995 99  1 : Corrected porosity
 RMA     .OHMM       99 995 99  1 : Calculated borehole resistivity for ABC processing
 RWAZC   .           94 935  7  1 : Apparent formation water resistivity (corrected)
 SP      .MV          1  10  1  1 : Spontaneous Potential
 TEN     .LBF        99 635 99  1 : Differential tension
 TXTEMP  .DEGF       99 995 99  1 : Temperature near transmitter coil
 ZCOR    .G/C3       45 356 99  1 : Density correction
 ZDEN    .G/C3       45 350  1  1 : Formation bulk density
 ZDNC    .G/C3       94 995 99  1 : Borehole size/mud weight corrected density
~Parameter Information Block
#MNEM.UNIT             Parameter Value                  Parameter Description
#----.----   ----------------------------------------   -------------------------------
 HIDE.       HIGH DEFINITION INDUCTION LOG^S          : Header Identifer
 HID1.       COMPENSATED Z-DENSILOG^S                 : Header Identifer
 HID2.       COMPENSATED NEUTRON LOG                  : Header Identifer
 HID3.       GAMMA RAY LOG                            : Header Identifer
 CMT4.       HAZELETT 1                               : Comment 4  
 FL1 .       414' FSEL & 567' F SOUTH RIVER OF THE    : Field Location 1
 FL2 .       BETTNE, C A SURVEY      A-11             : Field Location 2
 OS1 .       1" HDIL/GR                               : Other Services Line 1
 OS2 .       TVD                                      : Other Services Line 2
 PDAT.       GL                                       : Permanent Datum
 EPD .FT     72                                       : Elevation Of Perm. Datum
 LMF .       KB                                       : Log Measured From
 APD .FT     12                                       : Above Permanent Datum
 DMF .       KB                                       : Drilling Measured From
 EKB .FT     84                                       : Elevation Of Kelly Bushing
 EDF .FT     83                                       : Elevation Of Derrick Floor
 EGL .FT     72                                       : Elevation Of Ground Level
 RUN .       1                                        : Run Number
 TRIP.       1                                        : Trip Number
 SON .       90010                                    : Service Order Number
 TDD .FT     3830                                     : Total Depth - Driller
 TDL .FT     3832                                     : Total Depth - Logger
 BLI .FT     3830                                     : Bottom Log Interval
 TLI .FT     1214                                     : Top Log Interval
 CSIZ.IN     8.625                                    : Casing Size
 CBDR.FT     1212                                     : Casing Bottom - Driller
 CBLO.FT     1214                                     : Casing Bottom - Logger
 BS  .IN     7.875                                    : Bit Size
 DFT .       WBM                                      : Drilling Fluid Type
 DFD .LB/G   9.6                                      : Drilling Fluid Density
 DFV .S      43                                       : Drilling Fluid Viscosity
 DFPH.       10                                       : Drilling Fluid Ph
 DFL .C3     8                                        : Drilling Fluid Loss
 MSS .       FLOWLINE                                 : Mud Sample Source
 RMS .OHMM   1.12                                     : Resistivity Of Mud Sample
 MST .DEGF   75                                       : Mud Sample Temperature
 RMFS.OHMM   0.84                                     : Resistivity Of Mud Filtrate Sample
 MFST.DEGF   75                                       : Mud Filtrate Sample Temperature
 RMCS.OHMM   1.40                                     : Resistivity Of Mud Cake Sample
 MCST.DEGF   75                                       : Mud Cake Sample Temperature
 MFSS.       C                                        : Mud Filtrate Sample Source
 MCSS.       C                                        : Mud Cake Sample Source
 RMB .OHMM   0.71                                     : Mud Resistivity At Bht
 BHT .DEGF   122                                      : Bottom Hole Temperature
 TSC .       8 HRS                                    : Time Since Circulation
 MRT .DEGF   122                                      : Maximum Recorded Temperature
 LUN .       HL-6681                                  : Logging Unit Number
 LUL .       VICTORIA,TX                              : Logging Unit Location
 ENGI.       O. FADAYOMI                              : Engineer's Name
 WITN.       EPPS / PELLEGRINI                        : Witness' Name
 TSTR.       HDIL/ZDL/CN/GR                           : Title Service Mnemonic
 TSTG.       NA                                       : Title Service Mnemonic
 STUS.       FINAL                                    : Status
 LCNM.       BAKER ATLAS                              : Logging Company Name
 LCC .       150                                      : Logging Company Code
 OPMD.       OH.WIRE                                  : Operation Mode
 PANA.       O. FADAYOMI                              : Processing Analyst
 PCON.       BAKER ATLAS                              : Processing Contractor
~Other information
 BVOL = TOTAL BOREHOLE VOLUME                                                    
 CVOL = TOTAL CEMENT VOLUME, BASED ON 5.5" CSG                                   
 DENSITY MATRIX = SANDSTONE, 2.65 G/CC                                           
 NEUTRON MATRIX = SANDSTONE                                                      
 REPEAT SECTION LOGGED BELOW SURFACE CASING DUE TO TIGHT SPOTS AT TD.            
 HL-6681 CREW:  L. BRINKMAN, J. GUILLEN                                          
#  Curve Data
~A DEPT     BVOL     CAL      CNCF     CVOL     GR       M1R1     M1R2     M1R3     M1R6     M1R9     M2CC9    M2R2     M2R9     PE       PORZC    RMA      RWAZC    SP       TEN      TXTEMP   ZCOR     ZDEN     ZDNC    
# ...
 1565.500  883.140    8.087   45.124  510.713   84.328    2.672    2.837    2.995    3.121    3.182  315.568    2.825    3.169    2.607   31.574    0.811    0.430  -36.082  -35.659  116.344    0.033    2.134    2.129
 1566.000  882.962    8.090   44.144  510.618   80.996    2.662    2.836    3.003    3.132    3.188  314.588    2.828    3.179    2.759   32.219    0.811    0.450  -36.043  -28.149  116.344    0.027    2.124    2.118
 1566.500  882.783    8.093   42.947  510.522   76.638    2.661    2.846    3.019    3.152    3.201  313.000    2.841    3.195    2.742   32.269    0.811    0.454  -36.005  -26.451  116.359    0.028    2.123    2.118
 1567.000  882.604    8.100   42.508  510.425   75.303    2.668    2.855    3.030    3.166    3.206  310.430    2.869    3.221    2.597   31.937    0.811    0.444  -35.969  -18.218  116.359    0.034    2.128    2.123
 1567.500  882.425    8.116   41.902  510.329   74.976    2.669    2.840    3.006    3.145    3.174  304.667    2.934    3.282    2.520   31.702    0.810    0.433  -35.972   -8.783  116.359    0.038    2.132    2.127
 1568.000  882.245    8.142   40.604  510.231   72.608    2.727    2.863    3.008    3.150    3.168  289.761    3.105    3.451    2.573   30.704    0.810    0.403  -36.135  -17.360  116.373    0.038    2.149    2.143
 1568.500  882.064    8.165   38.962  510.133   69.984    2.937    3.022    3.147    3.279    3.284  258.269    3.513    3.872    2.690   28.091    0.810    0.345  -36.503  -36.025  116.373    0.037    2.192    2.186
 1569.000  881.882    8.176   37.358  510.033   67.111    4.199    4.237    4.407    4.629    4.617  211.544    4.330    4.727    2.843   25.124    0.810    0.382  -37.058  -46.456  116.373    0.033    2.242    2.235
 1569.500  881.700    8.178   36.300  509.933   62.834    6.781    6.676    6.967    7.432    7.369  169.811    5.438    5.889    2.956   24.175    0.810    0.561  -37.691  -51.622  116.388    0.026    2.257    2.251
 1570.000  881.518    8.176   35.641  509.834   59.996    6.811    6.645    6.868    7.252    7.172  148.461    6.262    6.736    2.976   25.135    0.810    0.594  -38.235  -45.624  116.388    0.022    2.242    2.235
 1570.500  881.335    8.172   34.856  509.734   60.707    6.096    5.998    6.167    6.505    6.405  141.826    6.600    7.051    3.022   25.908    0.810    0.566  -38.548  -32.769  116.388    0.024    2.229    2.223
 1571.000  881.153    8.168   34.344  509.634   62.723    6.345    6.329    6.514    6.862    6.726  137.263    6.853    7.285    3.103   25.577    0.810    0.578  -38.635  -26.089  116.388    0.029    2.234    2.228
 1571.500  880.971    8.166   33.619  509.535   62.648    7.245    7.332    7.574    7.951    7.760  130.108    7.262    7.686    3.077   24.725    0.810    0.620  -38.571  -28.455  116.388    0.031    2.248    2.242
 1572.000  880.790    8.168   31.709  509.435   60.544    7.649    7.819    8.088    8.449    8.216  123.198    7.724    8.117    2.951   23.798    0.810    0.605  -38.470  -32.282  116.388    0.033    2.264    2.257
 1572.500  880.608    8.181   29.649  509.336   58.596    7.723    7.910    8.170    8.486    8.229  118.896    8.085    8.411    2.925   22.792    0.810    0.552  -38.406  -34.688  116.402    0.038    2.280    2.274
 1573.000  880.425    8.208   29.174  509.236   58.123    7.797    7.949    8.177    8.446    8.168  116.425    8.359    8.589    2.954   21.958    0.810    0.506  -38.406  -35.318  116.402    0.043    2.294    2.288
 1573.500  880.241    8.235   29.973  509.134   57.690    8.377    8.481    8.688    8.929    8.618  114.450    8.598    8.737    2.946   21.510    0.810    0.511  -38.385  -31.167  116.402    0.046    2.302    2.295
 1574.000  880.056    8.252   30.644  509.031   55.879    8.333    8.404    8.587    8.799    8.485  112.423    8.810    8.895    2.960   21.290    0.810    0.492  -38.395  -22.474  116.402    0.048    2.305    2.299
 1574.500  879.870    8.263   30.448  508.928   54.280    8.714    8.805    8.992    9.209    8.883  109.346    9.064    9.145    2.951   21.178    0.810    0.509  -38.575  -15.375  116.417    0.048    2.307    2.301
 1575.000  879.684    8.268   30.038  508.824   53.904    9.334    9.509    9.745    9.979    9.637  105.912    9.318    9.442    2.789   21.352    0.810    0.562  -39.084  -13.470  116.417    0.046    2.304    2.298
 1575.500  879.497    8.268   29.759  508.720   53.686    9.068    9.319    9.606    9.839    9.514  103.005    9.509    9.708    2.679   22.087    0.810    0.597  -39.869  -17.885  116.417    0.045    2.292    2.286
 1576.000  879.311    8.264   29.577  508.616   53.069    9.176    9.507    9.862   10.104    9.785  100.248    9.692    9.975    2.779   23.429    0.810    0.697  -40.751  -26.837  116.417    0.045    2.270    2.263
 1576.500  879.125    8.258   29.851  508.513   52.016    9.501    9.887   10.306   10.565   10.246   98.122    9.834   10.191    2.901   25.276    0.810    0.859  -41.410  -31.822  116.417    0.041    2.239    2.233
 1577.000  878.939    8.257   31.141  508.409   49.803    9.675   10.050   10.502   10.775   10.459   97.822    9.823   10.223    2.960   27.504    0.810    1.051  -41.765  -29.153  116.417    0.036    2.202    2.196
 1577.500  878.753    8.278   32.585  508.306   46.757    8.821    9.101    9.517    9.771    9.487   99.531    9.639   10.047    2.999   29.466    0.810    1.106  -41.899  -29.355  116.431    0.034    2.170    2.164
 1578.000  878.565    8.329   32.712  508.201   43.942    7.975    8.177    8.489    8.694    8.467  100.413    9.560    9.959    2.992   30.497    0.809    1.063  -41.976  -34.549  116.431    0.035    2.153    2.147
 1578.500  878.375    8.387   31.921  508.093   42.723   10.579   11.033   11.570   11.904   11.522   96.095   10.006   10.406    2.913   30.818    0.809    1.479  -42.061  -37.472  116.431    0.032    2.147    2.142
 1579.000  878.183    8.424   31.411  507.984   42.888   15.514   16.516   17.228   17.629   17.135   90.000   10.705   11.111    2.798   31.242    0.809    2.265  -42.159  -35.640  116.446    0.028    2.140    2.135
 1579.500  877.989    8.434   31.358  507.872   44.274   10.060   11.014   11.482   11.756   11.413   90.323   10.684   11.071    2.707   32.318    0.809    1.623  -42.201  -31.657  116.446    0.033    2.122    2.117
 1580.000  877.795    8.428   31.398  507.761   46.840    7.738    8.574    8.923    9.135    8.865   95.152   10.165   10.510    2.720   33.731    0.809    1.382  -42.167  -27.614  116.446    0.044    2.099    2.093
 1580.500  877.602    8.418   31.701  507.650   49.287    8.483    9.263    9.613    9.831    9.547   97.221    9.980   10.286    2.827   34.730    0.809    1.585  -42.115  -26.819  116.461    0.051    2.082    2.077
 1581.000  877.409    8.427   32.269  507.539   48.272    8.510    8.957    9.265    9.469    9.202   96.290   10.110   10.385    2.946   34.791    0.809    1.533  -42.044  -31.096  116.461    0.052    2.081    2.076
 1581.500  877.214    8.484   32.469  507.427   44.299    8.581    8.646    8.872    9.034    8.833   93.638   10.407   10.679    2.994   33.592    0.809    1.365  -41.996  -38.114  116.461    0.048    2.101    2.096
 1582.000  877.017    8.589   31.900  507.312   41.861   13.365   13.140   13.646   14.046   13.628   86.703   11.182   11.534    2.964   31.454    0.809    1.828  -42.077  -43.584  116.475    0.040    2.137    2.131
 1582.500  876.814    8.694   31.725  507.192   42.876   24.569   24.709   26.678   28.373   26.967   79.191   12.110   12.628    2.965   30.013    0.809    3.271  -42.298  -41.899  116.475    0.034    2.161    2.155
 1583.000  876.607    8.751   32.553  507.068   44.357   11.653   12.314   12.924   13.365   13.053   79.673   11.839   12.551    3.079   30.536    0.809    1.643  -42.598  -34.084  116.475    0.030    2.152    2.146
 1583.500  876.398    8.770   33.760  506.941   44.433    8.391    9.455   10.076   10.477   10.253   85.214   10.826   11.735    3.171   31.889    0.809    1.417  -42.941  -28.057  116.475    0.027    2.130    2.124
