~Version Information
 VERS.                2.00:   CWLS log ASCII Standard -VERSION 2.00
 WRAP.                  NO:   One line per frame      
~Well Information Block
#MNEM.UNIT                  Well Data                    Data Description
#----.----   -----------------------------------------   -------------------------------
 STRT.FT                                      1214.000 : Starting Depth
 STOP.FT                                      3832.000 : Ending Depth
 STEP.FT                                         0.500 : Level Spacing
 NULL.                                       -999.2500 : Absent Value
 COMP.        LAVACA RIVER OPERATING CO., LLC          : Company
 WELL.        MYSKA, ROBERT #4 ST                      : Well
 FLD .        BOLING                                   : Field
 LOC .        593' FNEL & 414' FEL OF LEASE            : Location
 CNTY.        FORT BEND                                : County
 STAT.        TEXAS                                    : State
 CTRY.        USA                                      : Country
 SRVC.        Baker Hughes                             : Service Company
 DATE.        10-SEP-2014                              : Log Date
 API .        42-157-32993                             : API Number
 UWI .        42-157-32993                             : Unique Well ID
~Curve Information Block
#MNEM    .UNIT        API Codes     Curve Description
#--------.--------   ------------   -------------------------------
 DEPT    .FT         99 995 99  1 : Depth
 BVOL    .F3         70 995 99  1 : Borehole volume
 CAL     .IN         70 280 99  1 : Caliper
 CNCF    .PU         42 995 99  1 : Field normalized compensated neutron porosity
 CVOL    .F3         70 995 99  1 : Cement volume
 GR      .GAPI       30 310  1  1 : Gamma ray
 M1R1    .OHMM        8 120 10  1 : Vertical 1-foot resolution matched resistivity, 10-inch DOI
 M1R2    .OHMM        8 120 20  1 : Vertical 1-foot resolution matched resistivity, 20-inch DOI
 M1R3    .OHMM        8 120 30  1 : Vertical 1-foot resolution matched resistivity, 30-inch DOI
 M1R6    .OHMM        8 120 60  1 : Vertical 1-foot resolution matched resistivity, 60-inch DOI
 M1R9    .OHMM        8 120 90  1 : Vertical 1-foot resolution matched resistivity, 90-inch DOI
 M2CC9   .MMHO        8 110 90  1 : HDIL 2-foot resolution compressed conductivity, 90-inch DOI
 M2R2    .OHMM        8 120 20  1 : Vertical 2-foot resolution matched resistivity, 20-inch DOI
 M2R9    .OHMM        8 120 90  1 : Vertical 2-foot resolution matched resistivity, 90-inch DOI
 PE      .B/E        45 358  1  1 : Photo electric cross-section
 PORZC   .PU         99 995 99  1 : Corrected porosity
 RMA     .OHMM       99 995 99  1 : Calculated borehole resistivity for ABC processing
 RWAZC   .           94 935  7  1 : Apparent formation water resistivity (corrected)
 SP      .MV          1  10  1  1 : Spontaneous Potential
 TEN     .LBF        99 635 99  1 : Differential tension
 TXTEMP  .DEGF       99 995 99  1 : Temperature near transmitter coil
 ZCOR    .G/C3       45 356 99  1 : Density correction
 ZDEN    .G/C3       45 350  1  1 : Formation bulk density
 ZDNC    .G/C3       94 995 99  1 : Borehole size/mud weight corrected density
~Parameter Information Block
#MNEM.UNIT             Parameter Value                  Parameter Description
#----.----   ----------------------------------------   -------------------------------
 HIDE.       HIGH DEFINITION INDUCTION LOG^S          : Header Identifer
 HID1.       COMPENSATED Z-DENSILOG^S                 : Header Identifer
 HID2.       COMPENSATED NEUTRON LOG                  : Header Identifer
 HID3.       GAMMA RAY LOG                            : Header Identifer
 CMT4.       HAZELETT 1                               : Comment 4  
 FL1 .       414' FSEL & 567' F SOUTH RIVER OF THE    : Field Location 1
 FL2 .       BETTNE, C A SURVEY      A-11             : Field Location 2
 OS1 .       1" HDIL/GR                               : Other Services Line 1
 OS2 .       TVD                                      : Other Services Line 2
 PDAT.       GL                                       : Permanent Datum
 EPD .FT     72                                       : Elevation Of Perm. Datum
 LMF .       KB                                       : Log Measured From
 APD .FT     12                                       : Above Permanent Datum
 DMF .       KB                                       : Drilling Measured From
 EKB .FT     84                                       : Elevation Of Kelly Bushing
 EDF .FT     83                                       : Elevation Of Derrick Floor
 EGL .FT     72                                       : Elevation Of Ground Level
 RUN .       1                                        : Run Number
 TRIP.       1                                        : Trip Number
 SON .       90010                                    : Service Order Number
 TDD .FT     3830                                     : Total Depth - Driller
 TDL .FT     3832                                     : Total Depth - Logger
 BLI .FT     3830                                     : Bottom Log Interval
 TLI .FT     1214                                     : Top Log Interval
 CSIZ.IN     8.625                                    : Casing Size
 CBDR.FT     1212                                     : Casing Bottom - Driller
 CBLO.FT     1214                                     : Casing Bottom - Logger
 BS  .IN     7.875                                    : Bit Size
 DFT .       WBM                                      : Drilling Fluid Type
 DFD .LB/G   9.6                                      : Drilling Fluid Density
 DFV .S      43                                       : Drilling Fluid Viscosity
 DFPH.       10                                       : Drilling Fluid Ph
 DFL .C3     8                                        : Drilling Fluid Loss
 MSS .       FLOWLINE                                 : Mud Sample Source
 RMS .OHMM   1.12                                     : Resistivity Of Mud Sample
 MST .DEGF   75                                       : Mud Sample Temperature
 RMFS.OHMM   0.84                                     : Resistivity Of Mud Filtrate Sample
 MFST.DEGF   75                                       : Mud Filtrate Sample Temperature
 RMCS.OHMM   1.40                                     : Resistivity Of Mud Cake Sample
 MCST.DEGF   75                                       : Mud Cake Sample Temperature
 MFSS.       C                                        : Mud Filtrate Sample Source
 MCSS.       C                                        : Mud Cake Sample Source
 RMB .OHMM   0.71                                     : Mud Resistivity At Bht
 BHT .DEGF   122                                      : Bottom Hole Temperature
 TSC .       8 HRS                                    : Time Since Circulation
 MRT .DEGF   122                                      : Maximum Recorded Temperature
 LUN .       HL-6681                                  : Logging Unit Number
 LUL .       VICTORIA,TX                              : Logging Unit Location
 ENGI.       O. FADAYOMI                              : Engineer's Name
 WITN.       EPPS / PELLEGRINI                        : Witness' Name
 TSTR.       HDIL/ZDL/CN/GR                           : Title Service Mnemonic
 TSTG.       NA                                       : Title Service Mnemonic
 STUS.       FINAL                                    : Status
 LCNM.       BAKER ATLAS                              : Logging Company Name
 LCC .       150                                      : Logging Company Code
 OPMD.       OH.WIRE                                  : Operation Mode
 PANA.       O. FADAYOMI                              : Processing Analyst
 PCON.       BAKER ATLAS                              : Processing Contractor
~Other information
 BVOL = TOTAL BOREHOLE VOLUME                                                    
 CVOL = TOTAL CEMENT VOLUME, BASED ON 5.5" CSG                                   
 DENSITY MATRIX = SANDSTONE, 2.65 G/CC                                           
 NEUTRON MATRIX = SANDSTONE                                                      
 REPEAT SECTION LOGGED BELOW SURFACE CASING DUE TO TIGHT SPOTS AT TD.            
 HL-6681 CREW:  L. BRINKMAN, J. GUILLEN                                          
#  Curve Data
~A DEPT     BVOL     CAL      CNCF     CVOL     GR       M1R1     M1R2     M1R3     M1R6     M1R9     M2CC9    M2R2     M2R9     PE       PORZC    RMA      RWAZC    SP       TEN      TXTEMP   ZCOR     ZDEN     ZDNC    
# ...
 2250.000  618.424    8.186   40.558  358.934   64.396    2.482    2.731    2.860    2.918    2.913  358.068    2.618    2.793    3.030   27.211    0.750    0.286  -34.521  -39.548  119.745    0.057    2.207    2.201
 2250.500  618.242    8.101   40.840  358.834   68.794    2.350    2.590    2.723    2.787    2.788  362.858    2.561    2.756    3.151   27.136    0.750    0.272  -34.655  -34.162  119.745    0.054    2.208    2.202
 2251.000  618.064    8.006   41.743  358.739   68.904    2.204    2.426    2.557    2.624    2.630  367.459    2.510    2.721    3.214   27.028    0.750    0.255  -34.715  -28.801  119.745    0.047    2.210    2.204
 2251.500  617.891    7.900   41.912  358.648   68.051    2.250    2.475    2.613    2.690    2.700  366.041    2.504    2.732    3.074   26.554    0.750    0.252  -34.716  -30.927  119.745    0.043    2.218    2.212
 2252.000  617.721    7.802   40.666  358.561   71.044    2.355    2.587    2.735    2.823    2.839  361.454    2.521    2.767    2.945   26.285    0.749    0.259  -34.654  -35.852  119.745    0.042    2.222    2.216
 2252.500  617.556    7.736   39.586  358.478   73.705    2.305    2.526    2.675    2.769    2.790  359.472    2.519    2.782    2.958   27.051    0.749    0.271  -34.535  -40.425  119.745    0.042    2.209    2.204
 2253.000  617.393    7.695   39.874  358.398   72.588    2.274    2.491    2.643    2.744    2.769  360.386    2.496    2.775    3.030   28.906    0.749    0.310  -34.409  -47.058  119.759    0.044    2.178    2.173
 2253.500  617.232    7.659   41.036  358.320   70.126    2.284    2.510    2.671    2.781    2.811  362.611    2.462    2.758    3.099   30.659    0.749    0.357  -34.367  -54.157  119.759    0.054    2.149    2.144
 2254.000  617.073    7.637   41.935  358.242   68.102    2.204    2.433    2.598    2.713    2.748  366.343    2.416    2.730    3.152   31.396    0.749    0.367  -34.405  -54.535  119.759    0.066    2.137    2.132
 2254.500  616.914    7.632   42.074  358.166   66.679    2.163    2.405    2.580    2.701    2.742  372.604    2.354    2.684    3.102   31.625    0.749    0.372  -34.551  -47.331  119.759    0.071    2.133    2.128
 2255.000  616.755    7.630   41.742  358.090   65.921    2.070    2.319    2.499    2.624    2.668  381.321    2.279    2.622    2.950   31.371    0.749    0.356  -34.724  -41.076  119.759    0.071    2.137    2.132
 2255.500  616.596    7.626   41.286  358.013   65.491    1.943    2.187    2.367    2.492    2.539  389.266    2.213    2.569    2.791   29.870    0.749    0.305  -34.826  -40.837  119.759    0.076    2.162    2.157
 2256.000  616.438    7.612   40.968  357.937   65.802    1.917    2.169    2.355    2.486    2.536  394.073    2.170    2.538    2.733   27.717    0.749    0.259  -34.798  -44.842  119.774    0.080    2.198    2.193
 2256.500  616.280    7.592   41.509  357.862   66.745    1.902    2.155    2.345    2.481    2.535  397.342    2.140    2.517    2.851   26.654    0.749    0.238  -34.688  -50.456  119.774    0.072    2.216    2.210
 2257.000  616.123    7.576   42.821  357.787   68.181    1.868    2.113    2.302    2.439    2.495  401.029    2.112    2.494    3.029   26.883    0.749    0.239  -34.505  -55.523  119.774    0.060    2.212    2.206
 2257.500  615.966    7.572   43.927  357.713   69.387    1.855    2.093    2.280    2.421    2.479  405.267    2.083    2.468    3.109   27.416    0.749    0.247  -34.370  -56.572  119.774    0.053    2.203    2.198
 2258.000  615.810    7.574   44.167  357.640   70.155    1.846    2.077    2.263    2.406    2.465  408.724    2.061    2.447    3.147   27.983    0.749    0.257  -34.263  -52.811  119.774    0.052    2.194    2.188
 2258.500  615.654    7.575   42.649  357.566   70.618    1.819    2.040    2.223    2.367    2.426  410.304    2.050    2.437    3.252   28.386    0.749    0.261  -34.174  -47.031  119.774    0.055    2.187    2.182
 2259.000  615.497    7.574   40.285  357.492   71.045    1.812    2.029    2.211    2.358    2.416  410.169    2.047    2.438    3.342   28.136    0.749    0.255  -34.094  -42.396  119.788    0.060    2.191    2.186
 2259.500  615.341    7.572   38.777  357.418   72.448    1.835    2.053    2.240    2.390    2.449  409.297    2.049    2.443    3.311   27.116    0.749    0.239  -34.075  -36.835  119.788    0.061    2.208    2.203
 2260.000  615.184    7.568   39.350  357.344   74.005    1.845    2.067    2.256    2.409    2.467  409.052    2.048    2.445    3.176   26.320    0.749    0.226  -34.047  -27.331  119.788    0.059    2.221    2.216
 2260.500  615.028    7.563   42.185  357.270   72.573    1.865    2.097    2.290    2.445    2.501  411.266    2.038    2.432    3.090   26.936    0.749    0.240  -34.017  -22.522  119.788    0.055    2.211    2.206
 2261.000  614.872    7.561   45.323  357.197   69.603    1.813    2.042    2.230    2.378    2.431  417.521    2.012    2.395    3.122   28.648    0.749    0.267  -33.946  -32.202  119.788    0.059    2.183    2.177
 2261.500  614.716    7.562   45.919  357.123   69.377    1.738    1.957    2.133    2.271    2.318  426.150    1.981    2.347    3.184   29.792    0.749    0.277  -33.873  -50.963  119.788    0.070    2.164    2.158
 2262.000  614.560    7.563   45.223  357.050   71.871    1.718    1.926    2.090    2.220    2.263  432.302    1.969    2.313    3.213   30.046    0.749    0.275  -33.861  -64.625  119.788    0.076    2.159    2.154
 2262.500  614.404    7.563   45.596  356.976   74.719    1.724    1.910    2.059    2.180    2.217  429.799    2.004    2.327    3.145   29.970    0.749    0.268  -33.950  -69.716  119.788    0.069    2.161    2.155
 2263.000  614.248    7.574   46.028  356.903   76.255    1.819    1.979    2.114    2.231    2.265  413.330    2.114    2.419    3.012   29.146    0.749    0.258  -34.075  -70.240  119.788    0.059    2.174    2.169
 2263.500  614.092    7.606   44.390  356.829   76.573    2.151    2.305    2.437    2.563    2.597  386.357    2.297    2.588    2.961   27.350    0.749    0.258  -34.161  -67.714  119.803    0.058    2.204    2.199
 2264.000  613.933    7.661   41.502  356.753   75.436    2.484    2.617    2.742    2.873    2.907  364.247    2.471    2.745    3.034   26.133    0.748    0.262  -34.137  -62.445  119.803    0.056    2.224    2.219
 2264.500  613.773    7.729   39.482  356.675   72.168    2.494    2.592    2.699    2.822    2.851  357.586    2.542    2.797    3.073   26.913    0.748    0.274  -34.050  -59.787  119.803    0.048    2.212    2.206
 2265.000  613.609    7.785   39.090  356.594   69.114    2.420    2.515    2.615    2.728    2.755  360.950    2.530    2.770    3.006   28.418    0.748    0.297  -33.970  -61.673  119.803    0.043    2.187    2.181
 2265.500  613.443    7.808   39.828  356.510   69.833    2.397    2.519    2.626    2.738    2.764  364.502    2.501    2.743    2.915   28.888    0.748    0.309  -33.976  -57.083  119.803    0.048    2.179    2.173
 2266.000  613.277    7.805   40.535  356.427   72.356    2.370    2.537    2.663    2.776    2.802  368.640    2.457    2.713    2.827   28.384    0.748    0.301  -34.136  -38.424  119.803    0.053    2.187    2.182
 2266.500  613.111    7.800   40.601  356.343   71.870    2.232    2.441    2.584    2.696    2.722  377.661    2.375    2.648    2.739   28.197    0.748    0.289  -34.418  -21.076  119.803    0.046    2.190    2.185
 2267.000  612.945    7.800   40.553  356.260   70.687    2.060    2.298    2.453    2.562    2.588  390.647    2.273    2.560    2.705   28.815    0.748    0.288  -34.727  -20.532  119.803    0.031    2.180    2.175
 2267.500  612.779    7.800   41.119  356.176   74.050    1.948    2.206    2.373    2.480    2.506  404.389    2.177    2.473    2.799   29.778    0.748    0.299  -34.984  -31.606  119.803    0.022    2.164    2.159
 2268.000  612.613    7.801   42.078  356.093   78.635    1.847    2.110    2.281    2.385    2.411  417.123    2.097    2.397    2.895   30.494    0.748    0.303  -35.125  -43.328  119.817    0.021    2.152    2.147
