~Version Information
 VERS.                2.00:   CWLS log ASCII Standard -VERSION 2.00
 WRAP.                  NO:   One line per frame      
~Well Information Block
#MNEM.UNIT                  Well Data                    Data Description
#----.----   -----------------------------------------   -------------------------------
 STRT.FT                                      1214.000 : Starting Depth
 STOP.FT                                      3832.000 : Ending Depth
 STEP.FT                                         0.500 : Level Spacing
 NULL.                                       -999.2500 : Absent Value
 COMP.        LAVACA RIVER OPERATING CO., LLC          : Company
 WELL.        MYSKA, ROBERT #4 ST                      : Well
 FLD .        BOLING                                   : Field
 LOC .        593' FNEL & 414' FEL OF LEASE            : Location
 CNTY.        FORT BEND                                : County
 STAT.        TEXAS                                    : State
 CTRY.        USA                                      : Country
 SRVC.        Baker Hughes                             : Service Company
 DATE.        10-SEP-2014                              : Log Date
 API .        42-157-32993                             : API Number
 UWI .        42-157-32993                             : Unique Well ID
~Curve Information Block
#MNEM    .UNIT        API Codes     Curve Description
#--------.--------   ------------   -------------------------------
 DEPT    .FT         99 995 99  1 : Depth
 BVOL    .F3         70 995 99  1 : Borehole volume
 CAL     .IN         70 280 99  1 : Caliper
 CNCF    .PU         42 995 99  1 : Field normalized compensated neutron porosity
 CVOL    .F3         70 995 99  1 : Cement volume
 GR      .GAPI       30 310  1  1 : Gamma ray
 M1R1    .OHMM        8 120 10  1 : Vertical 1-foot resolution matched resistivity, 10-inch DOI
 M1R2    .OHMM        8 120 20  1 : Vertical 1-foot resolution matched resistivity, 20-inch DOI
 M1R3    .OHMM        8 120 30  1 : Vertical 1-foot resolution matched resistivity, 30-inch DOI
 M1R6    .OHMM        8 120 60  1 : Vertical 1-foot resolution matched resistivity, 60-inch DOI
 M1R9    .OHMM        8 120 90  1 : Vertical 1-foot resolution matched resistivity, 90-inch DOI
 M2CC9   .MMHO        8 110 90  1 : HDIL 2-foot resolution compressed conductivity, 90-inch DOI
 M2R2    .OHMM        8 120 20  1 : Vertical 2-foot resolution matched resistivity, 20-inch DOI
 M2R9    .OHMM        8 120 90  1 : Vertical 2-foot resolution matched resistivity, 90-inch DOI
 PE      .B/E        45 358  1  1 : Photo electric cross-section
 PORZC   .PU         99 995 99  1 : Corrected porosity
 RMA     .OHMM       99 995 99  1 : Calculated borehole resistivity for ABC processing
 RWAZC   .           94 935  7  1 : Apparent formation water resistivity (corrected)
 SP      .MV          1  10  1  1 : Spontaneous Potential
 TEN     .LBF        99 635 99  1 : Differential tension
 TXTEMP  .DEGF       99 995 99  1 : Temperature near transmitter coil
 ZCOR    .G/C3       45 356 99  1 : Density correction
 ZDEN    .G/C3       45 350  1  1 : Formation bulk density
 ZDNC    .G/C3       94 995 99  1 : Borehole size/mud weight corrected density
~Parameter Information Block
#MNEM.UNIT             Parameter Value                  Parameter Description
#----.----   ----------------------------------------   -------------------------------
 HIDE.       HIGH DEFINITION INDUCTION LOG^S          : Header Identifer
 HID1.       COMPENSATED Z-DENSILOG^S                 : Header Identifer
 HID2.       COMPENSATED NEUTRON LOG                  : Header Identifer
 HID3.       GAMMA RAY LOG                            : Header Identifer
 CMT4.       HAZELETT 1                               : Comment 4  
 FL1 .       414' FSEL & 567' F SOUTH RIVER OF THE    : Field Location 1
 FL2 .       BETTNE, C A SURVEY      A-11             : Field Location 2
 OS1 .       1" HDIL/GR                               : Other Services Line 1
 OS2 .       TVD                                      : Other Services Line 2
 PDAT.       GL                                       : Permanent Datum
 EPD .FT     72                                       : Elevation Of Perm. Datum
 LMF .       KB                                       : Log Measured From
 APD .FT     12                                       : Above Permanent Datum
 DMF .       KB                                       : Drilling Measured From
 EKB .FT     84                                       : Elevation Of Kelly Bushing
 EDF .FT     83                                       : Elevation Of Derrick Floor
 EGL .FT     72                                       : Elevation Of Ground Level
 RUN .       1                                        : Run Number
 TRIP.       1                                        : Trip Number
 SON .       90010                                    : Service Order Number
 TDD .FT     3830                                     : Total Depth - Driller
 TDL .FT     3832                                     : Total Depth - Logger
 BLI .FT     3830                                     : Bottom Log Interval
 TLI .FT     1214                                     : Top Log Interval
 CSIZ.IN     8.625                                    : Casing Size
 CBDR.FT     1212                                     : Casing Bottom - Driller
 CBLO.FT     1214                                     : Casing Bottom - Logger
 BS  .IN     7.875                                    : Bit Size
 DFT .       WBM                                      : Drilling Fluid Type
 DFD .LB/G   9.6                                      : Drilling Fluid Density
 DFV .S      43                                       : Drilling Fluid Viscosity
 DFPH.       10                                       : Drilling Fluid Ph
 DFL .C3     8                                        : Drilling Fluid Loss
 MSS .       FLOWLINE                                 : Mud Sample Source
 RMS .OHMM   1.12                                     : Resistivity Of Mud Sample
 MST .DEGF   75                                       : Mud Sample Temperature
 RMFS.OHMM   0.84                                     : Resistivity Of Mud Filtrate Sample
 MFST.DEGF   75                                       : Mud Filtrate Sample Temperature
 RMCS.OHMM   1.40                                     : Resistivity Of Mud Cake Sample
 MCST.DEGF   75                                       : Mud Cake Sample Temperature
 MFSS.       C                                        : Mud Filtrate Sample Source
 MCSS.       C                                        : Mud Cake Sample Source
 RMB .OHMM   0.71                                     : Mud Resistivity At Bht
 BHT .DEGF   122                                      : Bottom Hole Temperature
 TSC .       8 HRS                                    : Time Since Circulation
 MRT .DEGF   122                                      : Maximum Recorded Temperature
 LUN .       HL-6681                                  : Logging Unit Number
 LUL .       VICTORIA,TX                              : Logging Unit Location
 ENGI.       O. FADAYOMI                              : Engineer's Name
 WITN.       EPPS / PELLEGRINI                        : Witness' Name
 TSTR.       HDIL/ZDL/CN/GR                           : Title Service Mnemonic
 TSTG.       NA                                       : Title Service Mnemonic
 STUS.       FINAL                                    : Status
 LCNM.       BAKER ATLAS                              : Logging Company Name
 LCC .       150                                      : Logging Company Code
 OPMD.       OH.WIRE                                  : Operation Mode
 PANA.       O. FADAYOMI                              : Processing Analyst
 PCON.       BAKER ATLAS                              : Processing Contractor
~Other information
 BVOL = TOTAL BOREHOLE VOLUME                                                    
 CVOL = TOTAL CEMENT VOLUME, BASED ON 5.5" CSG                                   
 DENSITY MATRIX = SANDSTONE, 2.65 G/CC                                           
 NEUTRON MATRIX = SANDSTONE                                                      
 REPEAT SECTION LOGGED BELOW SURFACE CASING DUE TO TIGHT SPOTS AT TD.            
 HL-6681 CREW:  L. BRINKMAN, J. GUILLEN                                          
#  Curve Data
~A DEPT     BVOL     CAL      CNCF     CVOL     GR       M1R1     M1R2     M1R3     M1R6     M1R9     M2CC9    M2R2     M2R9     PE       PORZC    RMA      RWAZC    SP       TEN      TXTEMP   ZCOR     ZDEN     ZDNC    
# ...
 3471.000  138.983    8.004   32.475   80.942   71.173    1.764    1.549    1.532    1.597    1.593  809.819    1.208    1.235    3.795    8.016    0.661    0.011  -14.403  -48.924  121.387    0.101    2.525    2.518
 3471.500  138.809    7.970   30.914   80.850   65.504    1.777    1.562    1.540    1.600    1.598  781.782    1.256    1.279    4.215   11.332    0.661    0.024  -13.876  -57.536  121.387    0.092    2.470    2.463
 3472.000  138.635    8.009   30.061   80.759   63.869    1.368    1.268    1.258    1.292    1.291  831.746    1.182    1.202    3.710   18.493    0.661    0.055  -13.304  -81.695  121.387    0.083    2.352    2.345
 3472.500  138.459    8.079   30.468   80.666   69.457    1.114    1.081    1.081    1.102    1.101  899.762    1.091    1.111    3.082   23.656    0.661    0.080  -12.462  -94.594  121.387    0.080    2.266    2.260
 3473.000  138.281    8.127   33.167   80.570   79.553    1.026    1.032    1.040    1.055    1.054  963.919    1.017    1.037    2.741   25.595    0.661    0.091  -11.216  -79.633  121.387    0.082    2.234    2.228
 3473.500  138.100    8.145   38.051   80.472   88.302    0.946    0.978    0.992    1.002    1.001 1045.865    0.935    0.956    2.661   25.503    0.661    0.086  -10.029  -56.669  121.387    0.086    2.235    2.229
 3474.000  137.919    8.140   42.497   80.373   92.941    0.805    0.846    0.862    0.869    0.867 1141.817    0.854    0.876    2.702   25.387    0.661    0.073   -8.944  -51.659  121.372    0.085    2.237    2.231
 3474.500  137.739    8.120   44.175   80.275   95.129    0.732    0.777    0.794    0.800    0.798 1206.935    0.806    0.829    2.704   25.799    0.661    0.070   -8.018  -52.112  121.372    0.080    2.230    2.224
 3475.000  137.559    8.103   43.819   80.178   96.286    0.732    0.780    0.799    0.806    0.804 1211.039    0.801    0.826    2.625   25.882    0.661    0.071   -7.372  -44.340  121.372    0.076    2.229    2.223
 3475.500  137.380    8.096   42.582   80.082   95.090    0.754    0.804    0.825    0.834    0.831 1166.848    0.829    0.857    2.592   25.442    0.661    0.071   -6.966  -43.288  121.372    0.076    2.236    2.230
 3476.000  137.202    8.094   42.193   79.986   92.114    0.807    0.859    0.880    0.892    0.889 1108.184    0.871    0.902    2.712   25.062    0.661    0.073   -6.528  -43.238  121.372    0.078    2.242    2.236
 3476.500  137.023    8.109   43.161   79.889   89.322    0.878    0.927    0.949    0.964    0.960 1069.667    0.902    0.935    2.855   25.287    0.661    0.081   -5.995  -17.768  121.372    0.081    2.239    2.233
 3477.000  136.843    8.168   43.639   79.792   87.891    0.888    0.927    0.948    0.964    0.960 1072.539    0.901    0.932    2.943   26.145    0.660    0.087   -5.331   14.545  121.372    0.080    2.224    2.219
 3477.500  136.660    8.273   42.637   79.692   88.636    0.851    0.880    0.898    0.914    0.909 1107.561    0.874    0.903    3.035   26.963    0.660    0.088   -4.669   11.929  121.372    0.077    2.211    2.205
 3478.000  136.472    8.393   42.006   79.586   91.721    0.826    0.850    0.866    0.882    0.876 1141.470    0.850    0.876    3.025   26.782    0.660    0.083   -4.368  -15.856  121.372    0.082    2.214    2.208
 3478.500  136.279    8.484   42.969   79.475   95.722    0.812    0.837    0.853    0.868    0.861 1154.383    0.841    0.866    2.848   25.464    0.660    0.073   -4.459  -26.826  121.358    0.098    2.236    2.230
 3479.000  136.082    8.524   44.232   79.361   97.561    0.814    0.841    0.857    0.872    0.865 1149.994    0.846    0.870    2.735   23.886    0.660    0.064   -4.897  -11.780  121.358    0.115    2.262    2.256
 3479.500  135.884    8.528   45.015   79.245   97.014    0.810    0.841    0.856    0.871    0.864 1137.085    0.856    0.879    2.821   22.805    0.660    0.058   -5.592   -8.697  121.358    0.121    2.280    2.274
 3480.000  135.685    8.544   45.612   79.129   98.008    0.840    0.875    0.890    0.905    0.897 1122.887    0.869    0.891    2.919   22.433    0.660    0.058   -6.392  -35.611  121.358    0.116    2.286    2.280
 3480.500  135.486    8.609   45.861   79.012  100.950    0.861    0.898    0.912    0.926    0.918 1117.998    0.875    0.894    2.857   22.583    0.660    0.060   -7.206  -69.121  121.358    0.110    2.284    2.277
 3481.000  135.282    8.706   45.559   78.891  100.773    0.828    0.860    0.870    0.883    0.875 1123.234    0.875    0.890    2.671   22.840    0.660    0.059   -7.879  -87.677  121.358    0.107    2.280    2.273
 3481.500  135.075    8.791   45.351   78.766   97.692    0.849    0.874    0.882    0.893    0.886 1129.985    0.874    0.885    2.542   23.122    0.660    0.061   -8.336 -104.222  121.358    0.105    2.275    2.268
 3482.000  134.863    8.843   44.311   78.637   96.216    0.867    0.882    0.885    0.895    0.889 1144.017    0.867    0.874    2.524   23.517    0.660    0.064   -8.732 -117.113  121.358    0.099    2.268    2.262
 3482.500  134.649    8.876   42.213   78.506   95.561    0.825    0.825    0.824    0.832    0.828 1165.792    0.855    0.858    2.548   23.362    0.660    0.059   -9.081 -100.551  121.343    0.090    2.271    2.265
 3483.000  134.434    8.908   40.395   78.373   90.862    0.805    0.790    0.786    0.793    0.790 1158.205    0.863    0.863    2.615   20.941    0.660    0.044   -9.710  -74.517  121.343    0.090    2.311    2.304
 3483.500  134.217    8.963   39.568   78.239   83.147    0.879    0.846    0.837    0.847    0.845 1092.123    0.917    0.916    2.886   16.387    0.660    0.028  -10.897  -79.059  121.343    0.097    2.387    2.380
 3484.000  133.997    9.030   39.092   78.101   78.595    1.135    1.062    1.045    1.061    1.061 1004.992    0.996    0.995    3.387   13.706    0.660    0.024  -12.591  -82.271  121.343    0.097    2.431    2.424
 3484.500  133.774    9.111   37.969   77.960   77.451    1.265    1.162    1.138    1.159    1.161  967.945    1.034    1.033    3.544   16.005    0.660    0.036  -14.604  -56.306  121.343    0.082    2.393    2.386
 3485.000  133.546    9.213   35.988   77.815   74.465    1.132    1.042    1.021    1.040    1.042  992.359    1.008    1.008    3.195   20.026    0.660    0.053  -16.708  -46.027  121.343    0.074    2.327    2.320
 3485.500  133.314    9.313   34.213   77.665   69.625    1.026    0.946    0.928    0.943    0.946 1035.837    0.966    0.965    2.925   22.532    0.660    0.062  -18.987  -63.541  121.343    0.080    2.285    2.278
 3486.000  133.076    9.392   33.509   77.510   68.030    0.982    0.903    0.886    0.899    0.902 1067.065    0.937    0.937    2.968   23.296    0.660    0.063  -21.053  -71.644  121.343    0.089    2.272    2.266
 3486.500  132.835    9.453   33.693   77.351   68.878    0.993    0.906    0.888    0.903    0.906 1081.307    0.924    0.925    3.146   22.208    0.660    0.058  -22.780  -70.119  121.343    0.097    2.290    2.284
 3487.000  132.590    9.480   34.068   77.189   67.654    1.001    0.907    0.892    0.908    0.913 1068.685    0.930    0.936    3.329   19.462    0.660    0.044  -24.377  -75.119  121.329    0.109    2.336    2.329
 3487.500  132.346    9.452   34.297   77.027   64.569    1.115    1.006    0.994    1.017    1.026 1027.226    0.955    0.973    3.542   17.419    0.660    0.039  -25.881  -86.883  121.329    0.117    2.370    2.363
 3488.000  132.102    9.437   34.533   76.866   63.758    1.150    1.057    1.057    1.089    1.104  995.774    0.965    1.004    3.542   18.393    0.660    0.047  -27.510  -96.056  121.329    0.112    2.354    2.347
 3488.500  131.859    9.512   34.628   76.705   66.342    1.035    0.992    1.009    1.045    1.063 1025.225    0.915    0.975    3.099   20.934    0.660    0.059  -29.783  -83.927  121.329    0.099    2.312    2.305
 3489.000  131.611    9.633   34.468   76.539   68.850    0.895    0.894    0.924    0.960    0.979 1122.690    0.816    0.891    2.634   23.056    0.660    0.067  -32.282  -61.857  121.329    0.083    2.276    2.270
