~Version Information
 VERS.                2.00:   CWLS log ASCII Standard -VERSION 2.00
 WRAP.                  NO:   One line per frame      
~Well Information Block
#MNEM.UNIT                  Well Data                    Data Description
#----.----   -----------------------------------------   -------------------------------
 STRT.FT                                      1214.000 : Starting Depth
 STOP.FT                                      3832.000 : Ending Depth
 STEP.FT                                         0.500 : Level Spacing
 NULL.                                       -999.2500 : Absent Value
 COMP.        LAVACA RIVER OPERATING CO., LLC          : Company
 WELL.        MYSKA, ROBERT #4 ST                      : Well
 FLD .        BOLING                                   : Field
 LOC .        593' FNEL & 414' FEL OF LEASE            : Location
 CNTY.        FORT BEND                                : County
 STAT.        TEXAS                                    : State
 CTRY.        USA                                      : Country
 SRVC.        Baker Hughes                             : Service Company
 DATE.        10-SEP-2014                              : Log Date
 API .        42-157-32993                             : API Number
 UWI .        42-157-32993                             : Unique Well ID
~Curve Information Block
#MNEM    .UNIT        API Codes     Curve Description
#--------.--------   ------------   -------------------------------
 DEPT    .FT         99 995 99  1 : Depth
 BVOL    .F3         70 995 99  1 : Borehole volume
 CAL     .IN         70 280 99  1 : Caliper
 CNCF    .PU         42 995 99  1 : Field normalized compensated neutron porosity
 CVOL    .F3         70 995 99  1 : Cement volume
 GR      .GAPI       30 310  1  1 : Gamma ray
 M1R1    .OHMM        8 120 10  1 : Vertical 1-foot resolution matched resistivity, 10-inch DOI
 M1R2    .OHMM        8 120 20  1 : Vertical 1-foot resolution matched resistivity, 20-inch DOI
 M1R3    .OHMM        8 120 30  1 : Vertical 1-foot resolution matched resistivity, 30-inch DOI
 M1R6    .OHMM        8 120 60  1 : Vertical 1-foot resolution matched resistivity, 60-inch DOI
 M1R9    .OHMM        8 120 90  1 : Vertical 1-foot resolution matched resistivity, 90-inch DOI
 M2CC9   .MMHO        8 110 90  1 : HDIL 2-foot resolution compressed conductivity, 90-inch DOI
 M2R2    .OHMM        8 120 20  1 : Vertical 2-foot resolution matched resistivity, 20-inch DOI
 M2R9    .OHMM        8 120 90  1 : Vertical 2-foot resolution matched resistivity, 90-inch DOI
 PE      .B/E        45 358  1  1 : Photo electric cross-section
 PORZC   .PU         99 995 99  1 : Corrected porosity
 RMA     .OHMM       99 995 99  1 : Calculated borehole resistivity for ABC processing
 RWAZC   .           94 935  7  1 : Apparent formation water resistivity (corrected)
 SP      .MV          1  10  1  1 : Spontaneous Potential
 TEN     .LBF        99 635 99  1 : Differential tension
 TXTEMP  .DEGF       99 995 99  1 : Temperature near transmitter coil
 ZCOR    .G/C3       45 356 99  1 : Density correction
 ZDEN    .G/C3       45 350  1  1 : Formation bulk density
 ZDNC    .G/C3       94 995 99  1 : Borehole size/mud weight corrected density
~Parameter Information Block
#MNEM.UNIT             Parameter Value                  Parameter Description
#----.----   ----------------------------------------   -------------------------------
 HIDE.       HIGH DEFINITION INDUCTION LOG^S          : Header Identifer
 HID1.       COMPENSATED Z-DENSILOG^S                 : Header Identifer
 HID2.       COMPENSATED NEUTRON LOG                  : Header Identifer
 HID3.       GAMMA RAY LOG                            : Header Identifer
 CMT4.       HAZELETT 1                               : Comment 4  
 FL1 .       414' FSEL & 567' F SOUTH RIVER OF THE    : Field Location 1
 FL2 .       BETTNE, C A SURVEY      A-11             : Field Location 2
 OS1 .       1" HDIL/GR                               : Other Services Line 1
 OS2 .       TVD                                      : Other Services Line 2
 PDAT.       GL                                       : Permanent Datum
 EPD .FT     72                                       : Elevation Of Perm. Datum
 LMF .       KB                                       : Log Measured From
 APD .FT     12                                       : Above Permanent Datum
 DMF .       KB                                       : Drilling Measured From
 EKB .FT     84                                       : Elevation Of Kelly Bushing
 EDF .FT     83                                       : Elevation Of Derrick Floor
 EGL .FT     72                                       : Elevation Of Ground Level
 RUN .       1                                        : Run Number
 TRIP.       1                                        : Trip Number
 SON .       90010                                    : Service Order Number
 TDD .FT     3830                                     : Total Depth - Driller
 TDL .FT     3832                                     : Total Depth - Logger
 BLI .FT     3830                                     : Bottom Log Interval
 TLI .FT     1214                                     : Top Log Interval
 CSIZ.IN     8.625                                    : Casing Size
 CBDR.FT     1212                                     : Casing Bottom - Driller
 CBLO.FT     1214                                     : Casing Bottom - Logger
 BS  .IN     7.875                                    : Bit Size
 DFT .       WBM                                      : Drilling Fluid Type
 DFD .LB/G   9.6                                      : Drilling Fluid Density
 DFV .S      43                                       : Drilling Fluid Viscosity
 DFPH.       10                                       : Drilling Fluid Ph
 DFL .C3     8                                        : Drilling Fluid Loss
 MSS .       FLOWLINE                                 : Mud Sample Source
 RMS .OHMM   1.12                                     : Resistivity Of Mud Sample
 MST .DEGF   75                                       : Mud Sample Temperature
 RMFS.OHMM   0.84                                     : Resistivity Of Mud Filtrate Sample
 MFST.DEGF   75                                       : Mud Filtrate Sample Temperature
 RMCS.OHMM   1.40                                     : Resistivity Of Mud Cake Sample
 MCST.DEGF   75                                       : Mud Cake Sample Temperature
 MFSS.       C                                        : Mud Filtrate Sample Source
 MCSS.       C                                        : Mud Cake Sample Source
 RMB .OHMM   0.71                                     : Mud Resistivity At Bht
 BHT .DEGF   122                                      : Bottom Hole Temperature
 TSC .       8 HRS                                    : Time Since Circulation
 MRT .DEGF   122                                      : Maximum Recorded Temperature
 LUN .       HL-6681                                  : Logging Unit Number
 LUL .       VICTORIA,TX                              : Logging Unit Location
 ENGI.       O. FADAYOMI                              : Engineer's Name
 WITN.       EPPS / PELLEGRINI                        : Witness' Name
 TSTR.       HDIL/ZDL/CN/GR                           : Title Service Mnemonic
 TSTG.       NA                                       : Title Service Mnemonic
 STUS.       FINAL                                    : Status
 LCNM.       BAKER ATLAS                              : Logging Company Name
 LCC .       150                                      : Logging Company Code
 OPMD.       OH.WIRE                                  : Operation Mode
 PANA.       O. FADAYOMI                              : Processing Analyst
 PCON.       BAKER ATLAS                              : Processing Contractor
~Other information
 BVOL = TOTAL BOREHOLE VOLUME                                                    
 CVOL = TOTAL CEMENT VOLUME, BASED ON 5.5" CSG                                   
 DENSITY MATRIX = SANDSTONE, 2.65 G/CC                                           
 NEUTRON MATRIX = SANDSTONE                                                      
 REPEAT SECTION LOGGED BELOW SURFACE CASING DUE TO TIGHT SPOTS AT TD.            
 HL-6681 CREW:  L. BRINKMAN, J. GUILLEN                                          
#  Curve Data
~A DEPT     BVOL     CAL      CNCF     CVOL     GR       M1R1     M1R2     M1R3     M1R6     M1R9     M2CC9    M2R2     M2R9     PE       PORZC    RMA      RWAZC    SP       TEN      TXTEMP   ZCOR     ZDEN     ZDNC    
# ...
 3822.500    0.190    5.283 -999.250    0.000 -999.250    0.649    0.562    0.539    0.531    0.529 1894.894    0.560    0.528    3.384   66.080    0.642    0.350  -44.066  342.865  119.018    0.115    1.569    1.560
 3823.000    0.114    5.286 -999.250    0.000 -999.250    0.651    0.563    0.541    0.535    0.534 1881.605    0.560    0.531    3.435   66.067    0.642    0.353  -44.693  510.452  119.018    0.116    1.569    1.560
 3823.500    0.038    5.287 -999.250    0.000 -999.250    0.640    0.552    0.531    0.527    0.527 1876.672    0.559    0.533    3.426   66.077    0.642    0.348  -45.342  585.112  119.018    0.116    1.569    1.560
 3824.000 -999.250 -999.250 -999.250 -999.250 -999.250    0.647    0.555    0.534    0.530    0.531 1868.625    0.559    0.535    3.381   66.066    0.642    0.351  -45.932  609.252  119.018    0.115    1.569    1.560
 3824.500 -999.250 -999.250 -999.250 -999.250 -999.250    0.663    0.564    0.542    0.539    0.541 1856.450    0.561    0.539    3.353   65.501    0.642    0.351  -46.244  629.239  119.004    0.114    1.569    1.569
 3825.000 -999.250 -999.250 -999.250 -999.250 -999.250    0.665    0.562    0.540    0.539    0.541 1849.425    0.562    0.541    3.347   65.511    0.641    0.351  -46.434  654.039  119.004    0.112    1.567    1.569
 3825.500 -999.250 -999.250 -999.250 -999.250 -999.250    0.653    0.551    0.530    0.529    0.531 1844.205    0.563    0.542    3.350   65.804    0.641    0.349  -46.593  685.388  118.989    0.109    1.563    1.564
 3826.000 -999.250 -999.250 -999.250 -999.250 -999.250    0.684    0.571    0.549    0.548    0.551 1835.730    0.564    0.545 -999.250 -999.250    0.641    0.355  -46.872  699.918  118.989 -999.250 -999.250 -999.250
 3826.500 -999.250 -999.250 -999.250 -999.250 -999.250    0.699    0.581    0.558    0.558    0.561 1834.030    0.564    0.545 -999.250 -999.250    0.641    0.355  -47.181  682.413  118.975 -999.250 -999.250 -999.250
 3827.000 -999.250 -999.250 -999.250 -999.250 -999.250    0.677    0.568    0.547    0.547    0.550 1845.868    0.559    0.542 -999.250 -999.250    0.641    0.355  -47.289  653.579  118.975 -999.250 -999.250 -999.250
 3827.500 -999.250 -999.250 -999.250 -999.250 -999.250    0.650    0.551    0.532    0.532    0.535 1862.113    0.554    0.537 -999.250 -999.250    0.641    0.355  -46.926  644.928  118.960 -999.250 -999.250 -999.250
 3828.000 -999.250 -999.250 -999.250 -999.250 -999.250    0.629    0.539    0.521    0.521    0.524 1868.120    0.551    0.535 -999.250 -999.250    0.641    0.355  -46.411  686.606  118.960 -999.250 -999.250 -999.250
 3828.500 -999.250 -999.250 -999.250 -999.250 -999.250    0.644    0.551    0.532    0.533    0.536 1859.492    0.553    0.538 -999.250 -999.250    0.641    0.355  -46.076  754.807  118.960 -999.250 -999.250 -999.250
 3829.000 -999.250 -999.250 -999.250 -999.250 -999.250    0.653    0.558    0.539    0.540    0.543 1846.570    0.556    0.542 -999.250 -999.250    0.641    0.355  -45.926  793.375  118.960 -999.250 -999.250 -999.250
 3829.500 -999.250 -999.250 -999.250 -999.250 -999.250    0.654    0.557    0.539    0.540    0.543 1840.428    0.558    0.543 -999.250 -999.250    0.641    0.355  -45.771  787.950  118.945 -999.250 -999.250 -999.250
 3830.000 -999.250 -999.250 -999.250 -999.250 -999.250    0.657    0.558    0.539    0.541    0.544 1842.029    0.558    0.543 -999.250 -999.250    0.641    0.355  -45.556  777.482  118.945 -999.250 -999.250 -999.250
 3830.500 -999.250 -999.250 -999.250 -999.250 -999.250    0.656    0.557    0.538    0.540    0.542 1846.243    0.557    0.542 -999.250 -999.250    0.641    0.355  -45.296  782.527  118.931 -999.250 -999.250 -999.250
 3831.000 -999.250 -999.250 -999.250 -999.250 -999.250    0.655    0.556    0.537    0.539    0.541 1849.179    0.556    0.541 -999.250 -999.250    0.641    0.355  -45.004  797.153  118.931 -999.250 -999.250 -999.250
 3831.500 -999.250 -999.250 -999.250 -999.250 -999.250    0.655    0.556    0.536    0.539    0.540 1850.606    0.556    0.540 -999.250 -999.250    0.641    0.355  -44.755  791.118  118.916 -999.250 -999.250 -999.250
 3832.000 -999.250 -999.250 -999.250 -999.250 -999.250    0.656    0.556    0.536    0.539    0.540 1851.319    0.556    0.540 -999.250 -999.250    0.641    0.355  -44.593  735.545  118.916 -999.250 -999.250 -999.250
